[
  {
    "id": 1001,
    "name": "Cocu Boulangerie",
    "address": "Malabia 1510",
    "city": "CABA",
    "state": "Buenos Aires",
    "area": "Palermo Soho",
    "postal_code": "C1414DMF",
    "country": "Argentina",
    "phone": "+54 11 4831 4675",
    "lat": -34.591149,
    "long": -58.427926,
    "price": "-",
    "cuisines": ["Bakery", "Cafe"],
    "instagram": "https://www.instagram.com/cocuboulangerie/",
    "image_url": "https://www.dropbox.com/scl/fi/hfzly2l6fkcperlagypcb/Cocu-1.jpg?rlkey=6r4ajb6inm5012nqkypc6qju7&st=ueee8bmj&raw=1"
  },
  {
    "id": 1002,
    "name": "Petit Colon",
    "address": "Libertad 505",
    "city": "CABA",
    "state": "Buenos Aires",
    "area": "San Nicolás",
    "postal_code": "B1608",
    "country": "Argentina",
    "phone": "+54 11 4382 7306",
    "lat": -34.602552,
    "long": -58.383640,
    "price": "-",
    "cuisines": ["Cafe"],
    "instagram": "https://www.instagram.com/petitcolonba",
    "image_url": "https://www.dropbox.com/scl/fi/w5p7md8ob0mej69t7uyks/petitcolon-2.jpg?rlkey=6t5v3lzb871ml5j2ebbtzqqav&raw=1"
  },
  {
    "id": 1003,
    "name": "Confiteria Ideal",
    "address": "Suipacha 384",
    "city": "CABA",
    "state": "Buenos Aires",
    "area": "San Nicolás",
    "postal_code": "B1631",
    "country": "Argentina",
    "phone": "+54 11 5265 8069",
    "lat": -34.603895,
    "long": -58.379792,
    "price": "-",
    "cuisines": ["Cafe", "Pastries"],
    "instagram": "https://www.instagram.com/confiterialaideal/",
    "image_url": "https://www.dropbox.com/scl/fi/clr3o5h1y32rk0hz0v0e5/ideal.jpg?rlkey=2qnvbr8vkm5ykwlerhtkge1vc&st=g73bplhy&raw=1"
  },
  {
    "id": 1004,
    "name": "Cafe Rivas",
    "address": "Estados Unidos 302",
    "city": "CABA",
    "state": "Buenos Aires",
    "area": "San Telmo",
    "postal_code": "B1814",
    "country": "Argentina",
    "phone": "+54 11 4361 5539",
    "lat": -34.618592,
    "long": -58.370384,
    "price": "-",
    "cuisines": ["Cafe", "Bistro"],
    "instagram": "https://www.instagram.com/caferivas/",
    "image_url": "https://www.dropbox.com/scl/fi/lhm29w5ft5oypbf7ewhnv/caferivas.jpg?rlkey=rumojv5ptzl0k56wbbuobtl9w&raw=1"
  },
  {
    "id": 1005,
    "name": "Cafe Tortoni",
    "address": "Avenida de Mayo 825",
    "city": "CABA",
    "state": "Buenos Aires",
    "area": "San Nicolás",
    "postal_code": "C1084",
    "country": "Argentina",
    "phone": "+54 11 4342 4328",
    "lat": -34.608661,
    "long": -58.378230,
    "price": "-",
    "cuisines": ["Cafe"],
    "instagram": "https://www.instagram.com/grancafetortoni",
    "image_url": "https://www.dropbox.com/scl/fi/x52pjoql921rq69ahag61/Caf-_Tortoni-2.jpg?rlkey=gs5d94uclnvmile02r4wkftj4&raw=1"
  },
  {
    "id": 1006,
    "name": "Rapa Nui",
    "address": "Malabia 2014",
    "city": "CABA",
    "state": "Buenos Aires",
    "area": "Palermo Soho",
    "postal_code": "C1425",
    "country": "Argentina",
    "phone": "-",
    "lat": -34.588029,
    "long": -58.423117,
    "price": "-",
    "cuisines": ["Cafe", "Chocolate"],
    "instagram": "https://www.instagram.com/chocolates_rapanui",
    "image_url": "https://www.dropbox.com/scl/fi/yw86fwe0gxswvjzr4yite/Rapanui.jpg?rlkey=urnj3i4rnomgawarmatu7au4a&raw=1"
  },
  {
    "id": 1007,
    "name": "Pani Salvador",
    "address": "El Salvador 4827",
    "city": "CABA",
    "state": "Buenos Aires",
    "area": "Palermo Soho",
    "postal_code": "C1414",
    "country": "Argentina",
    "phone": "+54 11 4831 3823",
    "lat": -34.588334,
    "long": -58.428400,
    "price": "-",
    "cuisines": ["Cafe", "Brunch"],
    "instagram": "https://www.instagram.com/paniesdelicioso/",
    "image_url": "https://www.dropbox.com/scl/fi/m84lh8u3gy8hj55taivqy/pani-salvador-2.jpg?rlkey=pv5fre47aq1mqumw9g546c8ql&raw=1"
  },
  {
    "id": 1008,
    "name": "Cuervo Cafe",
    "address": "El Salvador 4580",
    "city": "CABA",
    "state": "Buenos Aires",
    "area": "Palermo Soho",
    "postal_code": "C1414",
    "country": "Argentina",
    "phone": "+54 11 4149 7509",
    "lat": -34.590455,
    "long": -58.425836,
    "price": "-",
    "cuisines": ["Cafe"],
    "instagram": "https://www.instagram.com/cuervocafe",
    "image_url": "https://www.dropbox.com/scl/fi/6cr0cmk5uo4ibbdqvfl93/Cuervo-Cafe.jpg?rlkey=utp95j43y57n6a17m6gkqa6s5&raw=1"
  },
  {
    "id": 1009,
    "name": "Padre Cafeteria & Panaderia",
    "address": "Avenida Honduras 4184",
    "city": "CABA",
    "state": "Buenos Aires",
    "area": "Palermo",
    "postal_code": "B1620",
    "country": "Argentina",
    "phone": "+54 11 4427 2373",
    "lat": -34.594454,
    "long": -58.422450,
    "price": "-",
    "cuisines": ["Cafe", "Bakery"],
    "instagram": "https://www.instagram.com/padrecoffeeroasters",
    "image_url": "https://www.dropbox.com/scl/fi/2862293r9e761nd7yzsms/padrecafeteria.jpg?rlkey=7ubg6nron27gh8k5y5gobk1km&raw=1"
  },
  {
    "id": 1010,
    "name": "Rondó Cafe",
    "address": "Uruguay 1048",
    "city": "CABA",
    "state": "Buenos Aires",
    "area": "Recoleta",
    "postal_code": "B1635",
    "country": "Argentina",
    "phone": "+54 11 6358 7679",
    "lat": -34.596413,
    "long": -58.387302,
    "price": "-",
    "cuisines": ["Cafe"],
    "instagram": "https://www.instagram.com/rondddocafe/",
    "image_url": "https://www.dropbox.com/scl/fi/kx0x7fwyelxtg4ni2rafk/rondocafe.jpg?rlkey=610busg7a8ptc9wfpy7etcwo3&raw=1"
  },
  {
      "id":1011,
      "name":"Fogón Asado",
      "address":"Uriarte 1423",
      "city":"CABA",
      "state":"Buenos Aires",
      "area":"Palermo",
      "postal_code":"C1414",
      "country":"Argentina",
      "phone":"+54 11 2142 2936",
      "lat":-34.588591,
      "long":-58.433547,
      "price":3,
      "cuisines":["Parrilla"],
      "instagram":"https://www.instagram.com/fogonasado/",
      "image_url":"https://www.dropbox.com/scl/fi/e460uouau8gvy9rly4sip/fogonasado.jpg?rlkey=5jijg21tem1ktzzfbda9zh8nv&raw=1"
   },
   {
      "id":1012,
      "name":"El Mercado",
      "address":"Martha Salotti 445",
      "city":"CABA",
      "state":"Buenos Aires",
      "area":"Puerto Madero",
      "postal_code":"B1864",
      "country":"Argentina",
      "phone":"+54 11 4010 9200",
      "lat":-34.613629,
      "long":-58.361742,
      "price":4,
      "cuisines":["Argentina"],
      "instagram":"https://www.instagram.com/elmercadofaena/",
      "image_url":"https://www.dropbox.com/scl/fi/vr0pqsr588q1w7icovk59/el-mercado-2.jpg?rlkey=alq4go798bcmnu5pnfh3miakj&raw=1"
   },
   {
      "id":1013,
      "name":"Hierro Parrilla Palermo",
      "address":"Costa Rica 5602",
      "city":"CABA",
      "state":"Buenos Aires",
      "area":"Palermo",
      "postal_code":"C1414",
      "country":"Argentina",
      "phone":"+54 11 2875 6355",
      "lat":-34.582650,
      "long":-58.434828,
      "price":3,
      "cuisines":["Parrilla"],
      "instagram":"https://www.instagram.com/hierro.palermo/",
      "image_url":"https://www.dropbox.com/scl/fi/jev23zpk16id4v00gvkrh/Hierroparrilla.jpg?rlkey=9zh4ylfd5440ick678gb4lg1r&raw=1"
   },
   {
      "id":1014,
      "name":"Don Julio",
      "address":"Guatemala 4691",
      "city":"CABA",
      "state":"Buenos Aires",
      "area":"Palermo",
      "postal_code":"C1425",
      "country":"Argentina",
      "phone":"+54 11 4831 9564",
      "lat":-34.586340,
      "long":-58.424230,
      "price":5,
      "cuisines":["Parrilla"],
      "instagram":"https://www.instagram.com/donjulioparrilla/",
      "image_url":"https://www.dropbox.com/scl/fi/d31xokyttg4tove1n35y7/don-julio-2.jpg?rlkey=2wkabls27i5df89n7zazwyw7m&raw=1"
   },
   {
      "id":1015,
      "name":"La Cabrera Buenos Aires",
      "address":"José A Cabrera 5127",
      "city":"CABA",
      "state":"Buenos Aires",
      "area":"Palermo",
      "postal_code":"C1414",
      "country":"Argentina",
      "phone":"+54 11 4832 5754",
      "lat":-34.589060,
      "long":-58.433284,
      "price":4,
      "cuisines":["Parrilla"],
      "instagram":"https://www.instagram.com/lacabrera_bsas/",
      "image_url":"https://www.dropbox.com/scl/fi/phvrznunjnb09qf7b421c/lacabrera.jpg?rlkey=k7oxa9q8hhmhxsc9g6xtqh151&raw=1"
   },
   {
      "id":1016,
      "name":"D’oro Italian Bar",
      "address":"Perú 159",
      "city":"CABA",
      "state":"Buenos Aires",
      "area":"San Nicolas",
      "postal_code":"B1641",
      "country":"Argentina",
      "phone":"+54 11 5051 4059",
      "lat":-34.609915,
      "long":-58.374944,
      "price":3,
      "cuisines":["Italiana", "Mediterranea"],
      "instagram":"https://www.instagram.com/doro.italianbar/",
      "image_url":"https://www.dropbox.com/scl/fi/ammlksnt2xg6dkkhexoip/doroitalianbar.jpeg?rlkey=d4b8jj6upo9wxw0wwhghut0wy&raw=1"
   },
   {
      "id":1017,
      "name":"Italpast",
      "address":"Juana Manso 1450",
      "city":"CABA",
      "state":"Buenos Aires",
      "area":"Puerto Madero",
      "postal_code":"B1864",
      "country":"Argentina",
      "phone":"+54 11 4010 9207",
      "lat":-34.613754,
      "long":-58.361826,
      "price":4,
      "cuisines":["Italiana", "Europea"],
      "instagram":"https://www.instagram.com/faenabsas/",
      "image_url":"https://www.dropbox.com/scl/fi/wvfmwiujtzp653jqaz1mz/italpast.jpg?rlkey=dnoeubia41xpdx0r8ynr2lbjz&raw=1"
   },
   {
      "id":1018,
      "name":"Nicky Harrison",
      "address":"Malabia 1764",
      "city":"CABA",
      "state":"Buenos Aires",
      "area":"Palermo",
      "postal_code":"C1414",
      "country":"Argentina",
      "phone":"+54 11 4831 0519",
      "lat":-34.589604,
      "long":-58.425581,
      "price":5,
      "cuisines":["Japonesa", "Sushi”, “Bar”],
      "instagram":"https://www.instagram.com/nicky.bsas/",
      "image_url":"https://www.dropbox.com/scl/fi/w8vejsh8yi5alqr4iwsx7/nicky-harrison.jpg?rlkey=zjdnzsc3lx6v00kev5vxo5nth&raw=1"
   },
   {
      "id":1019,
      "name":"Tancat Tasca Restaurant",
      "address":"Paraguay 645",
      "city":"CABA",
      "state":"Buenos Aires",
      "area":"Retiro",
      "postal_code":"B1661",
      "country":"Argentina",
      "phone":"+54 11 4312 5442",
      "lat":-34.597412,
      "long":-58.376048,
      "price":3,
      "cuisines":["Mariscos", "Mediterranea"],
      "instagram":"https://www.instagram.com/tancattasca/",
      "image_url":"https://www.dropbox.com/scl/fi/gotdtz50xedeo86g8ef8y/Tancat-Tasca-Restaurant.jpg?rlkey=rqybvhe5ww1i8pssj56bucs7b&raw=1"
   },
   {
      "id":1020,
      "name":"Bar Aleman",
      "address":"Avenida San Martín 5992",
      "city":"CABA",
      "state":"Buenos Aires",
      "area":"Villa Devoto",
      "postal_code":"C1419",
      "country":"Argentina",
      "phone":"+54 11 4501 0814",
      "lat":-34.595785,
      "long":-58.500636,
      "price":2,
      "cuisines":["Alemana", "Europea"],
      "instagram":"https://www.instagram.com/baralemandevoto/",
      "image_url":"https://www.dropbox.com/scl/fi/kmbunchobssnnx4wzadh0/bar-aleman-2.jpg?rlkey=ccafbquthidrzgycje4omc4rx&raw=1"
   },
   {
      "id":1021,
      "name":"Sarkis",
      "address":"Thames 1101",
      "city":"CABA",
      "state":"Buenos Aires",
      "area":"Palermo",
      "postal_code":"B1716",
      "country":"Argentina",
      "phone":"+54 11 4772 4911",
      "lat":-34.591444,
      "long":-58.436069,
      "price":2,
      "cuisines":["Armenia"],
      "instagram":"https://www.instagram.com/restaurantesarkis/",
      "image_url":"https://www.dropbox.com/scl/fi/mh71bl9k9wynr46kianpa/sarkis.jpg?rlkey=t5ai8zidksca4dbq36x978bzp&raw=1"
   },
   {
      "id":1022,
      "name":"Casa Cavia",
      "address":"Cavia 2985",
      "city":"CABA",
      "state":"Buenos Aires",
      "area":"Palermo",
      "postal_code":"C1425",
      "country":"Argentina",
      "phone":"+54 11 4801 9693",
      "lat":-34.577536,
      "long":-58.407180,
      "price":4,
      "cuisines":["Fusion", "Argentina”, “Bar”],
      "instagram":"https://www.instagram.com/casacavia",
      "image_url":"https://www.dropbox.com/scl/fi/7vkn2kcb0rxqp6co7kvh8/casacavia.jpg?rlkey=l6socg6cv5jltxjbbfxv8l48w&raw=1"
   },
   {
      "id":1023,
      "name":"Cabaña Las Lilas",
      "address":"Alicia Moreau de Justo 516",
      "city":"CABA",
      "state":"Buenos Aires",
      "area":"Puerto Madero",
      "postal_code":"B1107",
      "country":"Argentina",
      "phone":"+54 11 4313 1336",
      "lat":-34.603824,
      "long":-58.366756,
      "price":5,
      "cuisines":["Parrilla"],
      "instagram":"https://www.instagram.com/cabanalaslilasrestaurante/",
      "image_url":"https://www.dropbox.com/scl/fi/t72jgiobptt106y74ep98/cabana-las-lilas.jpg?rlkey=5girx30lnn079smiwaxps9xub&raw=1"
   },
   {
      "id":1024,
      "name":"Elena",
      "address":"Cerrito 1401",
      "city":"CABA",
      "state":"Buenos Aires",
      "area":"Retiro",
      "postal_code":"B1704",
      "country":"Argentina",
      "phone":"+54 11 4321 1200",
      "lat":-34.590674,
      "long":-58.382694,
      "price":5,
      "cuisines":["Argentina"],
      "instagram":"https://www.instagram.com/elena.restaurante/",
      "image_url":"https://www.dropbox.com/scl/fi/k18g6jyjqfpkoveyvhoep/elenaresto.jpg?rlkey=q2kbzvrabkq6lgsbhsxownevb&raw=1"
   },
   {
      "id":1025,
      "name":"Crystal Bar",
      "address":"Aimé Painé 1130",
      "city":"CABA",
      "state":"Buenos Aires",
      "area":"Puerto Madero",
      "postal_code":"B1602",
      "country":"Argentina",
      "phone":"+54 11 4114 0948",
      "lat":-34.609949,
      "long":-58.361901,
      "price":4,
      "cuisines":["Contemporanea”, ”Bar”],
      "instagram":"https://www.instagram.com/crystal.skybar/",
      "image_url":"https://www.dropbox.com/scl/fi/mxrenge3cyypqo2uqi4me/crystalbar.jpg?rlkey=u14cq8tcte1d4ffkxetyovqjp&raw=1"
   },
   {
      "id":1026,
      "name":"Rufino",
      "address":"Avenida Presidente Quintana 465",
      "city":"CABA",
      "state":"Buenos Aires",
      "area":"Recoleta",
      "postal_code":"C1112",
      "country":"Argentina",
      "phone":"+54 11 3394 4484",
      "lat":-34.588483,
      "long":-58.389217,
      "price":4,
      "cuisines":["Parrilla"],
      "instagram":"https://www.instagram.com/rufinoarg",
      "image_url":"https://www.dropbox.com/scl/fi/q7o9jn3l27z1o2tv3lzoy/rufinoresto.jpg?rlkey=j0jhbi18hwf5jsno76y6dhwen&raw=1"
   },
   {
      "id":1027,
      "name":"Anchoita - Buenos Aires",
      "address":"Juan Ramírez de Velasco 1456",
      "city":"CABA",
      "state":"Buenos Aires",
      "area":"Chacarita",
      "postal_code":"B1759",
      "country":"Argentina",
      "phone":"+54 11 4854 9334",
      "lat":-34.590093,
      "long":-58.444814,
      "price":4,
      "cuisines":["Argentina"],
      "instagram":"https://www.instagram.com/anchoitacava/",
      "image_url":"https://www.dropbox.com/scl/fi/eg46w7xhckik0g2booo5p/anchoita.jpg?rlkey=mvvp48v8rmhf2mkqqnto6w4iu&raw=1"
   },
   {
      "id":1028,
      "name":"Restaurant Estilo Campo",
      "address":"Juana Manuela Gorriti 1805",
      "city":"CABA",
      "state":"Buenos Aires",
      "area":"Puerto Madero",
      "postal_code":"B1646",
      "country":"Argentina",
      "phone":"+54 11 4312 4546",
      "lat":-34.619998,
      "long":-58.364721,
      "price":3,
      "cuisines":["Parrilla Latina"],
      "instagram":"https://www.instagram.com/estilocampo/",
      "image_url":"https://www.dropbox.com/scl/fi/0kjfqg5frvpylglxndk1x/restaurant-estilo-campo.jpg?rlkey=rx4qj0bnlci5a1pkp1hie8i3n&raw=1"
   },
   {
      "id":1029,
      "name":"Fervor",
      "address":"Posadas 1519",
      "city":"CABA",
      "state":"Buenos Aires",
      "area":"Retiro",
      "postal_code":"C1112",
      "country":"Argentina",
      "phone":"+54 11 4804 4494",
      "lat":-34.587324,
      "long":-58.387381,
      "price":4,
      "cuisines":["Parrilla", "Mariscos"],
      "instagram":"https://www.instagram.com/fervorbrasas/",
      "image_url":"https://www.dropbox.com/scl/fi/6q8jhejks6ioqc4a95lu4/fervor.jpg?rlkey=lvu9x4aqkvcaptkyaig5z97eu&raw=1"
   },
   {
      "id":1030,
      "name":"El Preferido Palermo",
      "address":"Jorge Luis Borges 2108",
      "city":"CABA",
      "state":"Buenos Aires",
      "area":"Palermo",
      "postal_code":"B1636",
      "country":"Argentina",
      "phone":"+54 11 4774 6585",
      "lat":-34.585409,
      "long":-58.425400,
      "price":3,
      "cuisines":["Argentina"],
      "instagram":"https://www.instagram.com/elpreferidodepalermo/",
      "image_url":"https://www.dropbox.com/scl/fi/znn1enk4ddm7e26tueper/El-Preferido-2.jpg?rlkey=uy50341c8oizbrj9g0t27vqzd&raw=1"
   },
   {
      "id":1031,
      "name":"Sigue al Conejo Blanco",
      "address":"Godoy Cruz 1554",
      "city":"CABA",
      "state":"Buenos Aires",
      "area":"Palermo",
      "postal_code":"C1414",
      "country":"Argentina",
      "phone":"+54 11 3583 8138",
      "lat":-34.588403,
      "long":-58.435613,
      "price":2,
      "cuisines":["Bar", "Hamburguesería"],
      "instagram":"https://www.instagram.com/siguealconejoblancorestobar/",
      "image_url":"https://www.dropbox.com/scl/fi/3c2pijqtuvda6uffz5yuq/siguealconejoblanco.jpg?rlkey=3q2ahqbmofpmbq2nkgaui6drm&raw=1"
   },
   {
      "id":1032,
      "name":"Corte Comedor",
      "address":"Migueletes 2301",
      "city":"CABA",
      "state":"Buenos Aires",
      "area":"Belgrano",
      "postal_code":"C1428",
      "country":"Argentina",
      "phone":"+54 11 4781 2166",
      "lat":-34.554042,
      "long":-58.448300,
      "price":4,
      "cuisines":["Parrilla", "Argentina"],
      "instagram":"https://www.instagram.com/cortecomedor/",
      "image_url":"https://www.dropbox.com/scl/fi/2zbp4y3csfdmdt3gq9br8/Corte-Comedor.jpg?rlkey=fb1dryxckzx8fuipibjzir7re&raw=1"
   },
   {
      "id":1033,
      "name":"Cucina D’onore",
      "address":"Avenida Alicia Moreau de Justo 1768",
      "city":"CABA",
      "state":"Buenos Aires",
      "area":"Puerto Madero",
      "postal_code":"B1646",
      "country":"Argentina",
      "phone":"+54 11 4315 9260",
      "lat":-34.619211,
      "long":-58.365819,
      "price":5,
      "cuisines":["Italiana"],
      "instagram":"https://www.instagram.com/cucinadonore/",
      "image_url":"https://www.dropbox.com/scl/fi/iuib1pagshukb33ka4qan/cucina-donore-2.jpg?rlkey=j22kgllgs8hm0t8j6vzwe6rgg&raw=1"
   },
   {
      "id":1034,
      "name":"Tres Monos",
      "address":"Guatemala 4899",
      "city":"CABA",
      "state":"Buenos Aires",
      "area":"Palermo",
      "postal_code":"C1425",
      "country":"Argentina",
      "phone":"+54 11 2088 9263",
      "lat":-34.584852,
      "long":-58.426108,
      "price":3,
      "cuisines":["Bar"],
      "instagram":"https://www.instagram.com/3monosbar/",
      "image_url":"https://www.dropbox.com/scl/fi/piqtrtx40llcly11czoll/tres-monos.jpg?rlkey=31ggrqwxone2wat9fuy2y15r2&raw=1"
   },
   {
      "id":1035,
      "name":"Cochinchina",
      "address":"Armenia 1540",
      "city":"CABA",
      "state":"Buenos Aires",
      "area":"Palermo",
      "postal_code":"C1414",
      "country":"Argentina",
      "phone":"+54 11 2247 6452",
      "lat":-34.590342,
      "long":-58.429091,
      "price":4,
      "cuisines":["Bar"],
      "instagram":"https://www.instagram.com/cochinchina.bar/",
      "image_url":"https://www.dropbox.com/scl/fi/57txnfn5833ahipefayii/cochinchina.jpg?rlkey=1g8m1ek5p964n3axzjeenhm3h&raw=1"
   },
   {
      "id":1036,
      "name":"Kōnā Corner",
      "address":"Castañeda 1899",
      "city":"CABA",
      "state":"Buenos Aires",
      "area":"Belgrano",
      "postal_code":"C1428",
      "country":"Argentina",
      "phone":"-",
      "lat":-34.553336,
      "long":-58.436934,
      "price":3,
      "cuisines":["Bar"],
      "instagram":"https://www.instagram.com/konacornerba/",
      "image_url":"https://www.dropbox.com/scl/fi/xqqfnwawqeygwy40pemsq/Kona-korner.jpg?rlkey=qbvsgw5hr2rwbdqa7yxdqumuo&raw=1"
   },
   {
      "id":1037,
      "name":"eLePeVe Las Patriotas",
      "address":"Paunero 2880",
      "city":"CABA",
      "state":"Buenos Aires",
      "area":"Las Cañitas",
      "postal_code":"B1663",
      "country":"Argentina",
      "phone":"+54 11 2343 5892",
      "lat":-34.580619,
      "long":-58.408467,
      "price":3,
      "cuisines":["Bar"],
      "instagram":"https://www.instagram.com/lpv______/",
      "image_url":"https://www.dropbox.com/scl/fi/gaz9gipjymomr0pe4lwbf/eLePeVe-Las-Patriotas.jpg?rlkey=3iz1pc6f5xqlpry7bdxkgny1c&raw=1"
   },
   {
      "id":1038,
      "name":"Le Club Bacán",
      "address":"Arroyo 841",
      "city":"CABA",
      "state":"Buenos Aires",
      "area":"Retiro",
      "postal_code":"B1661",
      "country":"Argentina",
      "phone":"+54 11 5218 4989",
      "lat":-34.591856,
      "long":-58.378984,
      "price":4,
      "cuisines":["Bar"],
      "instagram":"https://www.instagram.com/leclubbacan/",
      "image_url":"https://www.dropbox.com/scl/fi/hr1j9ehw02n57bycvis05/le-club-bacan.jpg?rlkey=nrx73ywunen9lr6nkp3f4awlq&raw=1"
   },
   {
      "id":1039,
      "name":"Trade Sky Bar",
      "address":"Avenida Corrientes 222, Piso 19",
      "city":"CABA",
      "state":"Buenos Aires",
      "area":"Puerto Madero",
      "postal_code":"C1106",
      "country":"Argentina",
      "phone":"-",
      "lat":-34.603316,
      "long":-58.370415,
      "price":5,
      "cuisines":["Bar"],
      "instagram":"https://www.instagram.com/trade.skybar/",
      "image_url":"https://www.dropbox.com/scl/fi/zk199np1z8us3y4ishmec/trade-bar.jpg?rlkey=smfxno8fcjfhwnvxhdhq4h06n&raw=1"
   },
   {
      "id":1040,
      "name":"Uptown",
      "address":"Arévalo 2030",
      "city":"CABA",
      "state":"Buenos Aires",
      "area":"Palermo",
      "postal_code":"B1678",
      "country":"Argentina",
      "phone":"+54 11 2101 4897",
      "lat":-34.578053,
      "long":-58.437379,
      "price":4,
      "cuisines":["Bar"],
      "instagram":"https://www.instagram.com/uptown.ba/",
      "image_url":"https://www.dropbox.com/scl/fi/zkd4zash010xdc44c520r/uptown-ba.jpg?rlkey=c8bzigyd8i64kpkr7qvdmcwg3&raw=1"
   },
   {
      "id":1041,
      "name":"Secuaz",
      "address":"Pedro Morán 3782",
      "city":"CABA",
      "state":"Buenos Aires",
      "area":"Villa Devoto",
      "postal_code":"C1419",
      "country":"Argentina",
      "phone":"+54 11 3507 0227",
      "lat":-34.600012,
      "long":-58.507871,
      "price":3,
      "cuisines":["Bar"],
      "instagram":"https://www.instagram.com/secuaz.bsas/",
      "image_url":"https://www.dropbox.com/scl/fi/lq0p5mrp0dy3vhn1r29kt/secuaz.jpg?rlkey=3dfhdr5q4dp2qzrvwhs8wj1d8&raw=1"
   },
   {
      "id":1042,
      "name":"Doppel",
      "address":"Avenida Juan de Garay 500",
      "city":"CABA",
      "state":"Buenos Aires",
      "area":"San Telmo",
      "postal_code":"B1704",
      "country":"Argentina",
      "phone":"+54 11 4300 0201",
      "lat":-34.624532,
      "long":-58.372871,
      "price":4,
      "cuisines":["Bar"],
      "instagram":"https://www.instagram.com/doppelbar/",
      "image_url":"https://www.dropbox.com/scl/fi/jp1g59zxm7oospxac82ni/doppelbar.jpg?rlkey=bujwtns5l8d21zuanc7bwbr4w&raw=1"
   },
   {
      "id":1043,
      "name":"El limón",
      "address":"Castillo 590",
      "city":"CABA",
      "state":"Buenos Aires",
      "area":"Villa Crespo",
      "postal_code":"C1414",
      "country":"Argentina",
      "phone":"-",
      "lat":-34.594822,
      "long":-58.435102,
      "price":3,
      "cuisines":["Bar"],
      "instagram":"https://www.instagram.com/ellimonbar/",
      "image_url":"https://www.dropbox.com/scl/fi/cpw7j1w315wr4y5yycu8o/el-limon.jpg?rlkey=w32d05ybke9tyleuglqz2ggct&raw=1"
   },
   {
      "id":1044,
      "name":"Rey de Copas",
      "address":"Gorriti 5176",
      "city":"CABA",
      "state":"Buenos Aires",
      "area":"Palermo",
      "postal_code":"B1847",
      "country":"Argentina",
      "phone":"+54 11 2068 5220",
      "lat":-34.588401,
      "long":-58.432914,
      "price":4,
      "cuisines":["Bar"],
      "instagram":"https://www.instagram.com/reydecopas_bar/",
      "image_url":"https://www.dropbox.com/scl/fi/v5nis90czqz76xb5cbucw/rey-de-copas-2.jpg?rlkey=elpj68m6dxpcw4g9yzvb6q23v&raw=1"
   },
   {
      "id":1045,
      "name":"Mixtape",
      "address":"Roosevelt 1806",
      "city":"CABA",
      "state":"Buenos Aires",
      "area":"Belgrano",
      "postal_code":"C1428",
      "country":"Argentina",
      "phone":"-",
      "lat":-34.554318,
      "long":-58.455128,
      "price":3,
      "cuisines":["Bar"],
      "instagram":"https://www.instagram.com/mixtape.bar/",
      "image_url":"https://www.dropbox.com/scl/fi/3borms3cj3xyqk8jkq2yv/mixtape-bar-2.jpg?rlkey=8tbjtgq8n6q9cm6skn9htzeq0&raw=1"
   },
   {
      "id":1046,
      "name":"Al Fondo",
      "address":"Campos Salles 2145",
      "city":"CABA",
      "state":"Buenos Aires",
      "area":"Nuñez",
      "postal_code":"C1429",
      "country":"Argentina",
      "phone":"+54 11 3108 7681",
      "lat":-34.550648,
      "long":-58.463368,
      "price":4,
      "cuisines":["Bar"],
      "instagram":"https://www.instagram.com/alfondo.bar/",
      "image_url":"https://www.dropbox.com/scl/fi/lx9b37qyurvdoow9tmvbd/al-fondo-bar-2.jpg?rlkey=vocm4faf5ydzpi588w4r6qoz0&raw=1"
   },
   {
      "id":1047,
      "name":"Boticario",
      "address":"Honduras 5207",
      "city":"CABA",
      "state":"Buenos Aires",
      "area":"Palermo",
      "postal_code":"B1743",
      "country":"Argentina",
      "phone":"+54 11 6227 9609",
      "lat":-34.587320,
      "long":-58.432156,
      "price":4,
      "cuisines":["Bar"],
      "instagram":"https://www.instagram.com/boticariobar/",
      "image_url":"https://www.dropbox.com/scl/fi/b9yrahorhpk308h24s9om/BoticarioBar.jpg?rlkey=afu2sz3hcsvebjpu7nttmz4t0&raw=1"
   },
   {
      "id":1048,
      "name":"Presidente Bar",
      "address":"Presidente Quintana 188",
      "city":"CABA",
      "state":"Buenos Aires",
      "area":"Recoleta",
      "postal_code":"C101A",
      "country":"Argentina",
      "phone":"+54 11 4811 3248",
      "lat":-34.591011,
      "long":-58.386929,
      "price":5,
      "cuisines":["Bar"],
      "instagram":"https://www.instagram.com/presidentebar/",
      "image_url":"https://www.dropbox.com/scl/fi/l5f5laq5rcl82m7frfz8n/presidente_bar-2.jpg?rlkey=p3aym35a6y0gr7849sltic4lw&raw=1"
   },
   {
      "id":1049,
      "name":"El Museo del Whisky",
      "address":"Monroe 3980",
      "city":"CABA",
      "state":"Buenos Aires",
      "area":"Belgrano",
      "postal_code":"C1430",
      "country":"Argentina",
      "phone":"+54 11 4543 5873",
      "lat":-34.567741,
      "long":-58.474810,
      "price":5,
      "cuisines":["Bar"],
      "instagram":"https://www.instagram.com/museowhisky/",
      "image_url":"https://www.dropbox.com/scl/fi/ap5nkhh78f2fg6mz2wuou/el-museo-del-whisky.jpg?rlkey=s0edv6oqt51s3ggwa3rr6r9cn&raw=1"
   },
   {
      "id":1050,
      "name":"La Puerta Roja",
      "address":"Chacabuco 733",
      "city":"CABA",
      "state":"Buenos Aires",
      "area":"San Telmo",
      "postal_code":"B1642",
      "country":"Argentina",
      "phone":"+54 11 4362 5649",
      "lat":-34.616748,
      "long":-58.376157,
      "price":3,
      "cuisines":["Bar"],
      "instagram":"https://www.instagram.com/puertaroja.santelmo/",
      "image_url":"https://www.dropbox.com/scl/fi/79xcz9pcii7qqdyfqlqbn/la-puerta-roja-2.jpg?rlkey=g4vrv1797o4tbihtb1j5xj1xc&raw=1"
   },
   {
      "id":1051,
      "name":"The Library Lounge",
      "address":"Juana Manso 1307",
      "city":"CABA",
      "state":"Buenos Aires",
      "area":"Puerto Madero",
      "postal_code":"B1864",
      "country":"Argentina",
      "phone":"+54 11 4010 9200",
      "lat":-34.613648,
      "long":-58.362009,
      "price":5,
      "cuisines":["Bar"],
      "instagram":"https://www.instagram.com/faenabsas/",
      "image_url":"https://www.dropbox.com/scl/fi/ivedmz35gi3xb9pe86nlr/library-lounge-hotel-2.jpg?rlkey=9fi2brwcsdvwog93nrc6g7irg&raw=1"
   },
   {
      "id":1052,
      "name":"Blest Palermo",
      "address":"Gorriti 4857",
      "city":"CABA",
      "state":"Buenos Aires",
      "area":"Palermo",
      "postal_code":"B1847",
      "country":"Argentina",
      "phone":"+54 11 4831 6907",
      "lat":-34.590180,
      "long":-58.429646,
      "price":3,
      "cuisines":["Bar"],
      "instagram":"https://www.instagram.com/blestpalermo/",
      "image_url":"https://www.dropbox.com/scl/fi/cxke7np8t5jkcv07y2d29/blest-palermo.jpg?rlkey=qyl229wsps3u5jppbf3mcum5n&raw=1"
   },
   {
      "id":1053,
      "name":"Desarmadero Bar",
      "address":"Gorriti 4295",
      "city":"CABA",
      "state":"Buenos Aires",
      "area":"Palermo",
      "postal_code":"B1847",
      "country":"Argentina",
      "phone":"+54 11 6737 6903",
      "lat":-34.594138,
      "long":-58.424171,
      "price":4,
      "cuisines":["Bar"],
      "instagram":"https://www.instagram.com/desarmaderobar/",
      "image_url":"https://www.dropbox.com/scl/fi/8alzixklbqqrh3montjyw/Desarmadero.jpg?rlkey=mdn2qosotqqjvn2v794au7zje&raw=1"
   },
   {
      "id":1054,
      "name":"Down Town Matias",
      "address":"Echeverría 3195",
      "city":"CABA",
      "state":"Buenos Aires",
      "area":"Belgrano",
      "postal_code":"B1864",
      "country":"Argentina",
      "phone":"+54 11 4545 1050",
      "lat":-34.567258,
      "long":-58.463413,
      "price":3,
      "cuisines":["Bar", "Pub"],
      "instagram":"https://www.instagram.com/dtmpub/",
      "image_url":"https://www.dropbox.com/scl/fi/bqjmuzve3p6xjb54uiprq/down-town-matias-2.jpg?rlkey=caia3wmdvvrn2u4trukctf52h&raw=1"
   },
   {
      "id":1055,
      "name":"Rabieta",
      "address":"Avenida Del Libertador 3949",
      "city":"CABA",
      "state":"Buenos Aires",
      "area":"Palermo",
      "postal_code":"B1637",
      "country":"Argentina",
      "phone":"+54 11 2157 0445",
      "lat":-34.568163,
      "long":-58.428268,
      "price":4,
      "cuisines":["Bar", "Cervecería"],
      "instagram":"https://www.instagram.com/rabietacerveza/",
      "image_url":"https://www.dropbox.com/scl/fi/fvnilz6wk9576pdwu3uwz/rabieta-2.jpg?rlkey=4b478eh20zi9atbzn3nv5w4y8&raw=1"
   },
   {
      "id":1056,
      "name":"Güerrin",
      "address":"Avenida Corrientes 1368",
      "city":"CABA",
      "state":"Buenos Aires",
      "area":"San Nicolas",
      "postal_code":"C1043",
      "country":"Argentina",
      "phone":"+54 11 4371 8141",
      "lat":-34.604146,
      "long":-58.386020,
      "price":2,
      "cuisines":["Pizzería"],
      "instagram":"https://www.instagram.com/pizzeriaguerrin/",
      "image_url":"https://www.dropbox.com/scl/fi/dyrckodkii3na3wbqgmqe/guerrin.jpg?rlkey=7ambnffhav8daicupbxsv446c&raw=1"
   },
   {
      "id":1057,
      "name":"Las Cuartetas",
      "address":"Avenida Corrientes 838",
      "city":"CABA",
      "state":"Buenos Aires",
      "area":"San Nicolas",
      "postal_code":"C1043",
      "country":"Argentina",
      "phone":"+54 11 4326 0171",
      "lat":-34.603692,
      "long":-58.378657,
      "price":2,
      "cuisines":["Pizzería"],
      "instagram":"https://www.instagram.com/lascuartetaspizza/",
      "image_url":"https://www.dropbox.com/scl/fi/0c47ylildzew3tutb31wi/lascuartetas-2.jpg?rlkey=66gxhniuz4p5a0i2iv3lrr8f9&raw=1"
   },
   {
      "id":1058,
      "name":"Banchero",
      "address":"Avenida Corrientes 1300",
      "city":"CABA",
      "state":"Buenos Aires",
      "area":"San Nicolas",
      "postal_code":"C1043",
      "country":"Argentina",
      "phone":"+54 11 4382 3353",
      "lat":-34.604022,
      "long":-58.385042,
      "price":2,
      "cuisines":["Pizzería"],
      "instagram":"https://www.instagram.com/pizzeriabanchero/",
      "image_url":"https://www.dropbox.com/scl/fi/2si7dlhp2b8ypik1cj4vj/banchero.jpg?rlkey=p8y4q6mzj029rkzbzwc7794df&raw=1"
   },
   {
      "id":1059,
      "name":"La Mezzetta",
      "address":"Avenida Álvarez Thomas 1321",
      "city":"CABA",
      "state":"Buenos Aires",
      "area":"Belgrano",
      "postal_code":"C1427",
      "country":"Argentina",
      "phone":"+54 11 4554 7585",
      "lat":-34.578124,
      "long":-58.460564,
      "price":2,
      "cuisines":["Pizzería"],
      "instagram":"https://www.instagram.com/pizzerialamezzetta/",
      "image_url":"https://www.dropbox.com/scl/fi/byitv0uo78w3wcsc6l635/La-Mezzetta.jpg?rlkey=vpmu68y0rqpow3igwqfh92fli&raw=1"
   },
   {
      "id":1060,
      "name":"El Cuartito",
      "address":"Talcahuano 937",
      "city":"CABA",
      "state":"Buenos Aires",
      "area":"San Nicolas",
      "postal_code":"B1604",
      "country":"Argentina",
      "phone":"+54 11 4816 1758",
      "lat":-34.597841,
      "long":-58.385462,
      "price":2,
      "cuisines":["Pizzería"],
      "instagram":"https://www.instagram.com/cuartito_paginaoficial/",
      "image_url":"https://www.dropbox.com/scl/fi/zjr41t5677e2omziv7cz3/el-cuartito.jpg?rlkey=3fgnxnbn71apkmqkrxxkm6gl5&raw=1"
   },
   {
      "id":1061,
      "name":"El Imperio de la Pizza",
      "address":"Avenida Corrientes 6891",
      "city":"CABA",
      "state":"Buenos Aires",
      "area":"Chacarita",
      "postal_code":"C1427",
      "country":"Argentina",
      "phone":"+54 11 4553 1464",
      "lat":-34.586890,
      "long":-58.454967,
      "price":2,
      "cuisines":["Pizzería"],
      "instagram":"https://www.instagram.com/pizzaelimperio/",
      "image_url":"https://www.dropbox.com/scl/fi/22wjw2912m6u76vhb0wdb/el-imperio.jpg?rlkey=omq0qisdryfbczvsc2aiav8oz&raw=1"
   },
   {
      "id":1062,
      "name":"Burgio",
      "address":"Avenida Cabildo 2477",
      "city":"CABA",
      "state":"Buenos Aires",
      "area":"Belgrano",
      "postal_code":"C1428",
      "country":"Argentina",
      "phone":"+54 11 4784 4549",
      "lat":-34.558396,
      "long":-58.459552,
      "price":2,
      "cuisines":["Pizzería"],
      "instagram":"https://www.instagram.com/burgiopizzeria/",
      "image_url":"https://www.dropbox.com/scl/fi/0cm02b3cra5akznb761vs/burgio.jpg?rlkey=sop9a2fgk5ai9p2ygmanz8lrt&raw=1"
   },
   {
      "id":1063,
      "name":"Siamo nel Forno",
      "address":"Costa Rica 5886",
      "city":"CABA",
      "state":"Buenos Aires",
      "area":"Palermo",
      "postal_code":"C1414",
      "country":"Argentina",
      "phone":"+54 11 4775 0337",
      "lat":-34.580481,
      "long":-58.437608,
      "price":2,
      "cuisines":["Pizzería"],
      "instagram":"https://www.instagram.com/siamonelforno/",
      "image_url":"https://www.dropbox.com/scl/fi/w3sghlf1qku4ftrgrgm44/siamo-nel-forno.jpg?rlkey=93ni5swrbe979d1mndbjxmq29&raw=1"
   },
   {
      "id":1064,
      "name":"Los Inmortales",
      "address":"Avenida Corrientes 1369",
      "city":"CABA",
      "state":"Buenos Aires",
      "area":"San Nicolas",
      "postal_code":"C1043",
      "country":"Argentina",
      "phone":"+54 11 4373 5303",
      "lat":-34.603767,
      "long":-58.386058,
      "price":2,
      "cuisines":["Pizzería"],
      "instagram":"https://www.instagram.com/losinmortalespizza/",
      "image_url":"https://www.dropbox.com/scl/fi/0feidnv3mbhh5s5yeggsw/los-inmortales-2.jpg?rlkey=qtnyqb8w5mvlswldfnn4wphse&raw=1"
   },
   {
     "id": 1065,
     "name": "Vive Café",
     "address": "Costa Rica 5722",
     "city": "CABA",
     "state": "Buenos Aires",
     "area": "Palermo",
     "postal_code": "C1414",
     "country": "Argentina",
     "phone": "+54 11 4774 5461",
     "lat": -34.581749,
     "long": -58.436099,
     "price": 2,
     "cuisines": ["Cafe"],
     "instagram": "https://www.instagram.com/vivecafe/",
     "image_url": "https://www.dropbox.com/scl/fi/4z535swmfp71u798xosbb/vive-cafe.jpg?rlkey=8tm0sjrl46sn7b32gqj05ds85&raw=1"
   },
   {
     "id": 1066,
     "name": "Full City Coffee House",
     "address": "Thames 1535",
     "city": "CABA",
     "state": "Buenos Aires",
     "area": "Palermo",
     "postal_code": "C1414",
     "country": "Argentina",
     "phone": "+54 11 4833 6774",
     "lat": -34.588516,
     "long": -58.431568,
     "price": 4,
     "cuisines": ["Cafe"],
     "instagram": "https://www.instagram.com/fullcitycoffeehouse/",
     "image_url": "https://www.dropbox.com/scl/fi/chjeqff86rtueb9tzdvx5/Full-City-Coffee-House-1b.jpg?rlkey=2w7z607x5mxqgcj3l72vx7ww8&raw=1"
   }
]
