[
   {
      "id":1,
      "name":"Temaikèn",
      "address":"Acceso Bioparque Temaikèn",
      "city":"Escobar",
      "state":"Buenos Aires",
      "area":"Escobar",
      "postal_code":"B1623",
      "country":"Argentina",
      "phone":"+54 3484 436900",
      "lat":-34.365684,
      "long":-58.802596,
      "price":2,
      "categories":["Parque"],
      "instagram":"https://www.instagram.com/fundaciontemaiken/",
      "image_url":"https://www.dropbox.com/scl/fi/6s5omlkfp7m0pvs8rcz8n/Temaiken.jpg?rlkey=5pwg4laluwah4ueorkhu4dqze&raw=1"
   },
   {
      "id":2,
      "name":"Cementerio Recoleta",
      "address":"Junín 1760",
      "city":"CABA",
      "state":"Buenos Aires",
      "area":"Recoleta",
      "postal_code":"C1113",
      "country":"Argentina",
      "phone":"+54 11 5614 8869",
      "lat":-34.587150,
      "long":-58.392994,
      "price":1,
      "categories":["Atracción cultural"],
      "instagram":"https://www.instagram.com/cementeriogral/",
      "image_url":"https://www.dropbox.com/scl/fi/te7k7ggwu2o4ostcmijts/cementerio-recoleta.jpg?rlkey=n09os1map31u0g5ap5b2br4q8&raw=1"
   },
   {
      "id":3,
      "name":"Caminito",
      "address":"Magallanes 851",
      "city":"CABA",
      "state":"Buenos Aires",
      "area":"La Boca",
      "postal_code":"C1166",
      "country":"Argentina",
      "phone":"-",
      "lat":-34.639670,
      "long":-58.362959,
      "price":1,
      "categories":["Atracción cultural"],
      "instagram":"https://www.instagram.com/visitcaminito/",
      "image_url":"https://www.dropbox.com/scl/fi/4vktdetbakrgwo4l5eznx/caminito.jpg?rlkey=e0tpm8hr61ib6ao47qgb3d2ov&raw=1"
   },
   {
      "id":4,
      "name":"Gamboa Viñas & Bodega",
      "address":"Ruta 9 km 65.5",
      "city":"Campana",
      "state":"Buenos Aires",
      "area":"Campana",
      "postal_code":"B2802",
      "country":"Argentina",
      "phone":"+54 11 3084 6084",
      "lat":-34.256232,
      "long":-58.921040,
      "price":3,
      "categories":["Bodega"],
      "instagram":"https://www.instagram.com/bodegagamboa/",
      "image_url":"https://www.dropbox.com/scl/fi/ghd1xunni9r1o2xx0irf8/gamboa-vi-as-bodega.jpg?rlkey=0zcax8iosodqcuml3jclaeji8&raw=1"
   },
   {
      "id":5,
      "name":"Palacio Barolo",
      "address":"Avenida de Mayo 1370",
      "city":"CABA",
      "state":"Buenos Aires",
      "area":"Congreso",
      "postal_code":"C1085",
      "country":"Argentina",
      "phone":"+54 11 4381 2425",
      "lat":-34.609718,
      "long":-58.386106,
      "price":2,
      "categories":["Atracción cultural"],
      "instagram":"https://www.instagram.com/palaciobarolo/",
      "image_url":"https://www.dropbox.com/scl/fi/8utygm997ej3xnoy6wwkn/palacio-barolo.jpg?rlkey=5ah9sqsnrs3ceaog6ql5vgea7&raw=1"
   },
   {
      "id":6,
      "name":"Teatro Colón",
      "address":"Tucumán 1171",
      "city":"CABA",
      "state":"Buenos Aires",
      "area":"San Nicolas",
      "postal_code":"C1049",
      "country":"Argentina",
      "phone":"+54 11 4378 7100",
      "lat":-34.601122,
      "long":-58.383472,
      "price":3,
      "categories":["Teatro"],
      "instagram":"https://www.instagram.com/teatrocolon/",
      "image_url":"https://www.dropbox.com/scl/fi/4ctnfyj91lnyrs27c5tcd/teatro-colon.jpg?rlkey=3flb72x1f0hn8qq8pba227cd0&raw=1"
   },
   {
      "id":7,
      "name":"Jardín Japonés",
      "address":"Av. Casares 3450",
      "city":"CABA",
      "state":"Buenos Aires",
      "area":"Palermo",
      "postal_code":"C1425",
      "country":"Argentina",
      "phone":"+54 11 2157 2130",
      "lat":-34.574876,
      "long":-58.408508,
      "price":2,
      "categories":["Parque"],
      "instagram":"https://www.instagram.com/jardinjapones/",
      "image_url":"https://www.dropbox.com/scl/fi/torwp28p80tf1mdemqxgf/jardin-japones.jpg?rlkey=i22ct1wvwmr41qfrmwd9ankhs&raw=1"
   },
   {
      "id":8,
      "name":"Rosedal de Palermo",
      "address":"-",
      "city":"CABA",
      "state":"Buenos Aires",
      "area":"Palermo",
      "postal_code":"C1425",
      "country":"Argentina",
      "phone":"-",
      "lat":-34.570952,
      "long":-58.417238,
      "price":1,
      "categories":["Parque"],
      "instagram":"https://www.instagram.com/parque3defebrero/",
      "image_url":"https://www.dropbox.com/scl/fi/hzzcgbrf2vmgg72zysw2d/rosedal.jpg?rlkey=4u5qe3p71q14pvrzyfy7gfo84&raw=1"
   },
   {
      "id":9,
      "name":"Museo de los Niños",
      "address":"Agüero 511",
      "city":"CABA",
      "state":"Buenos Aires",
      "area":"Abasto",
      "postal_code":"C1171",
      "country":"Argentina",
      "phone":"+54 11 4861 2325",
      "lat":-34.603437,
      "long":-58.410869,
      "price":2,
      "categories":["Museo"],
      "instagram":"https://www.instagram.com/museodelosninosabasto/",
      "image_url":"https://www.dropbox.com/scl/fi/t83t5yysreakx8av92kj5/museo-de-los-ni-os.jpg?rlkey=3qc0bzk3b4tqaist21jxhwm0h&raw=1"
   },
   {
      "id":10,
      "name":"Floralis Generica",
      "address":"Avenida Presidente Figueroa Alcorta 2263",
      "city":"CABA",
      "state":"Buenos Aires",
      "area":"Palermo",
      "postal_code":"C1425",
      "country":"Argentina",
      "phone":"+54 11 4312 2232",
      "lat":-34.581730,
      "long":-58.393959,
      "price":1,
      "categories":["Monumento"],
      "instagram":"https://www.instagram.com/explore/locations/364417509/floralis-generica/?hl=es",
      "image_url":"https://www.dropbox.com/scl/fi/3obutmqjl733n028u5f02/floralis-generica.jpg?rlkey=dhzjjtp9c5swp6f4ydghbfvol&raw=1"
   },
   {
      "id":11,
      "name":"Barrio Chino",
      "address":"Arribeños 2105",
      "city":"CABA",
      "state":"Buenos Aires",
      "area":"Belgrano",
      "postal_code":"C1428",
      "country":"Argentina",
      "phone":"-",
      "lat":-34.558163,
      "long":-58.450113,
      "price":1,
      "categories":["Barrio cultural"],
      "instagram":"https://www.instagram.com/barriochino_ba/",
      "image_url":"https://www.dropbox.com/scl/fi/w6ht9vg0qyzn00dw2ct2s/barrio-chino.jpg?rlkey=6gr411vyochyx0v6uppremt07&raw=1"
   },
   {
      "id":12,
      "name":"Catedral Primada",
      "address":"San Martín 27",
      "city":"CABA",
      "state":"Buenos Aires",
      "area":"San Nicolas",
      "postal_code":"C1004",
      "country":"Argentina",
      "phone":"+54 11 4331 2845",
      "lat":-34.607493,
      "long":-58.373239,
      "price":2,
      "categories":["Atracción cultural"],
      "instagram":"https://www.instagram.com/explore/locations/277127294/catedral-primada-de-buenos-aires/?__d=11",
      "image_url":"https://www.dropbox.com/scl/fi/fi3aobxfymxnmg9kiftta/catedral-primada.jpg?rlkey=pu9ezn8biawf7sl21r8lgck6c&raw=1"
   },
   {
      "id":13,
      "name":"Facultad Derecho",
      "address":"Av. Pres. Figueroa Alcorta 2263",
      "city":"CABA",
      "state":"Buenos Aires",
      "area":"Palermo",
      "postal_code":"C1425",
      "country":"Argentina",
      "phone":"+54 11 4809 5600",
      "lat":-34.582539,
      "long":-58.391937,
      "price":1,
      "categories":["Monumento"],
      "instagram":"https://www.instagram.com/fduba/",
      "image_url":"https://www.dropbox.com/scl/fi/jcvltyuk24wjr4mdmmj6r/faculdad-de-derecho.jpg?rlkey=vlcstj5yfhyq5ps51hzuz6x67&raw=1"
   },
   {
      "id":14,
      "name":"Puente de la Mujer",
      "address":"-",
      "city":"CABA",
      "state":"Buenos Aires",
      "area":"Puerto Madero",
      "postal_code":"C1107",
      "country":"Argentina",
      "phone":"+54 11 4312 2232",
      "lat":-34.607983,
      "long":-58.365061,
      "price":1,
      "categories":["Monumento"],
      "instagram":"https://www.instagram.com/explore/locations/107280440051333/puente-de-la-mujer/",
      "image_url":"https://www.dropbox.com/scl/fi/aeb8xwkjb2fyu6v6p1e87/puente-de-la-mujer.jpg?rlkey=48ygp7abwk6875ara63ake9w6&raw=1"
   },
   {
      "id":15,
      "name":"Planetario Galileo Galilei",
      "address":"Av. Sarmiento s/n",
      "city":"CABA",
      "state":"Buenos Aires",
      "area":"Palermo",
      "postal_code":"C1425",
      "country":"Argentina",
      "phone":"+54 11 4772 9265",
      "lat":-34.569694,
      "long":-58.411721,
      "price":3,
      "categories":["Planetario"],
      "instagram":"https://www.instagram.com/planetarioba/",
      "image_url":"https://www.dropbox.com/scl/fi/byn8uuto4c7or86nhz5bl/planetario-galileo-galilei.jpg?rlkey=ium1u5in62rat0al0t05az8n5&raw=1"
   },
   {
      "id":16,
      "name":"El Ateneo Grand Splendid",
      "address":"Avenida Santa Fe 1860",
      "city":"CABA",
      "state":"Buenos Aires",
      "area":"Recoleta",
      "postal_code":"C1123",
      "country":"Argentina",
      "phone":"+54 11 4813 6052",
      "lat":-34.595924,
      "long":-58.394228,
      "price":3,
      "categories":["Librería"],
      "instagram":"https://www.instagram.com/elateneograndsplendid/",
      "image_url":"https://www.dropbox.com/scl/fi/k3qd15hhbbz6mqx2a2stp/ateneo_grand_splendid.jpg?rlkey=ao3113gltpyaahmbp3s76fsrf&raw=1"
   },
   {
      "id":17,
      "name":"Obelisco",
      "address":"Av. Corrientes y Av. 9 De Julio",
      "city":"CABA",
      "state":"Buenos Aires",
      "area":"San Nicolas",
      "postal_code":"C1043",
      "country":"Argentina",
      "phone":"+54 11 4312 2232",
      "lat":-34.603722,
      "long":-58.381541,
      "price":1,
      "categories":["Monumento"],
      "instagram":"https://www.instagram.com/bairesobelisco/",
      "image_url":"https://www.dropbox.com/scl/fi/hmp6opdip43rjtwphu89w/obelisco-de-buenos-aires.jpg?rlkey=kmfghrhkc131vxg2292x959za&raw=1"
   },
   {
      "id":18,
      "name":"Lagos de Palermo",
      "address":"Av. Ernesto Tornquist 80",
      "city":"CABA",
      "state":"Buenos Aires",
      "area":"Palermo",
      "postal_code":"C1426",
      "country":"Argentina",
      "phone":"-",
      "lat":-34.557306,
      "long":-58.434277,
      "price":1,
      "categories":["Parque"],
      "instagram":"https://www.instagram.com/explore/locations/240068008/lagos-de-palermo-buenos-aires-argentina/",
      "image_url":"https://www.dropbox.com/scl/fi/92wo7ixllgtqgkl6am2h1/lagos-de-palermo.jpg?rlkey=pk9vgbomlj9hs6mvivovl0mek&raw=1"
   },
   {
      "id":19,
      "name":"Hipódromo Argentino de Palermo",
      "address":"Av. del Libertador 4101",
      "city":"CABA",
      "state":"Buenos Aires",
      "area":"Palermo",
      "postal_code":"C1426",
      "country":"Argentina",
      "phone":"+54 11 7700 2800",
      "lat":-34.568793,
      "long":-58.425926,
      "price":2,
      "categories":["Atracción"],
      "instagram":"https://www.instagram.com/hipodromopalermo.ok/",
      "image_url":"https://www.dropbox.com/scl/fi/srp89u92hxpfsirv80s9r/hipodromo-de-palermo.jpg?rlkey=10arrcf2v74g22q91irc9o6uo&raw=1"
   },
   {
      "id":20,
      "name":"Teatro Ciego",
      "address":"Jorge Luis Borges 1974",
      "city":"CABA",
      "state":"Buenos Aires",
      "area":"Palermo",
      "postal_code":"C1414",
      "country":"Argentina",
      "phone":"+54 11 2240 6730",
      "lat":-34.586144,
      "long":-58.426412,
      "price":3,
      "categories":["Teatro"],
      "instagram":"https://www.instagram.com/teatrociego/",
      "image_url":"https://www.dropbox.com/scl/fi/khal5fxxfhce25ijpwvt2/Teatro-ciego.jpg?rlkey=e5ocvmvmkeoe7tegkuwrwxil3&raw=1"
   },
   {
      "id":21,
      "name":"Reserva Ecológica Costanera Sur",
      "address":"Av. Dr. Tristán Achával Rodríguez 1550",
      "city":"CABA",
      "state":"Buenos Aires",
      "area":"Puerto Madero",
      "postal_code":"C1768",
      "country":"Argentina",
      "phone":"+54 11 4893 1853",
      "lat":-34.606949,
      "long":-58.352742,
      "price":1,
      "categories":["Reserva natural"],
      "instagram":"https://www.instagram.com/reservaecologicasur/",
      "image_url":"https://www.dropbox.com/scl/fi/622jiznugzihgbw0acken/reserva-ecologica-caba.jpg?rlkey=8b4byl2nk97rx13b8vy3hy06e&raw=1"
   },
   {
      "id":22,
      "name":"Buque Museo Fragata ARA Presidente Sarmiento",
      "address":"Darsena 3, Av. Alicia Moreau de Justo 900",
      "city":"CABA",
      "state":"Buenos Aires",
      "area":"Puerto Madero",
      "postal_code":"C1107",
      "country":"Argentina",
      "phone":"+54 11 4334 9386",
      "lat":-34.608899,
      "long":-58.365666,
      "price":2,
      "categories":["Museo"],
      "instagram":"https://www.instagram.com/fragatasarmientoycorbetaof/",
      "image_url":"https://www.dropbox.com/scl/fi/882386sj0j8dhak60yzog/buque-fragata-ara-sarmiento.jpg?rlkey=z9harewbot7j33lfp2pqdnvt1&raw=1"
   },
   {
      "id":23,
      "name":"Ecoparque Buenos Aires",
      "address":"Av. Sarmiento 2601",
      "city":"CABA",
      "state":"Buenos Aires",
      "area":"Palermo",
      "postal_code":"C1425",
      "country":"Argentina",
      "phone":"+54 11 4011 9995",
      "lat":-34.580812,
      "long":-58.420391,
      "price":2,
      "categories":["Parque"],
      "instagram":"https://www.instagram.com/ecoparqueba/",
      "image_url":"https://www.dropbox.com/scl/fi/ikqdtjrqxp6hito5gr8c7/ecoparque-buenos-aires.jpg?rlkey=qwy72ppj6slrtcrkgzn5u6sqe&raw=1"
   },
   {
      "id":24,
      "name":"Paseo Victorica",
      "address":"Av. Victorica",
      "city":"Tigre",
      "state":"Buenos Aires",
      "area":"Tigre",
      "postal_code":"B1648",
      "country":"Argentina",
      "phone":"-",
      "lat":-34.415762,
      "long":-58.579574,
      "price":1,
      "categories":["Paseo"],
      "instagram":"https://www.instagram.com/explore/locations/216765012310104/paseo-victorica/",
      "image_url":"https://www.dropbox.com/scl/fi/8jb941pm65x96i92cq7hu/paseo-victorica-tigre.jpg.jpg?rlkey=0w2974w04ihqojxz6uwe57et9&raw=1"
   },
   {
      "id":25,
      "name":"Casa Rosada",
      "address":"Balcarce 78",
      "city":"CABA",
      "state":"Buenos Aires",
      "area":"Monserrat",
      "postal_code":"C1064",
      "country":"Argentina",
      "phone":"+54 11 4344 3600",
      "lat":-34.608204,
      "long":-58.370243,
      "price":1,
      "categories":["Monumento"],
      "instagram":"https://www.instagram.com/casarosadaargentina/",
      "image_url":"https://www.dropbox.com/scl/fi/rd5w9ct24dq545c68vv6r/casa-rosada.jpg?rlkey=pii719ys6e9ldhcot0hp8rjna&raw=1"
   },
   {
      "id":26,
      "name":"Palacio Libertad",
      "address":"Sarmiento 151",
      "city":"CABA",
      "state":"Buenos Aires",
      "area":"Puerto Madero",
      "postal_code":"C1041",
      "country":"Argentina",
      "phone":"+54 11 6841 6400",
      "lat":-34.603626,
      "long":-58.369474,
      "price":2,
      "categories":["Palacio"],
      "instagram":"https://www.instagram.com/libertadpalacio/",
      "image_url":"https://www.dropbox.com/scl/fi/oh1gruz0d7n6ssuqs4r1i/palacio-libertad.jpg?rlkey=3ezr2z035n1som2r5pmo7c8q0&raw=1"
   },
   {
      "id":27,
      "name":"Parque 3 de Febrero",
      "address":"Av. Infanta Isabel 110",
      "city":"CABA",
      "state":"Buenos Aires",
      "area":"Palermo",
      "postal_code":"C1425",
      "country":"Argentina",
      "phone":"-",
      "lat":-34.571495,
      "long":-58.416759,
      "price":1,
      "categories":["Parque"],
      "instagram":"https://www.instagram.com/parque3defebrero/",
      "image_url":"https://www.dropbox.com/scl/fi/2qq2zanhbjaby08389xay/parque-tres-de-febrero.jpg?rlkey=bikkk6snu4p2n1dj0s157a2ay&raw=1"
   },
   {
      "id":28,
      "name":"Congreso de la Nación Argentina",
      "address":"Av. Entre Ríos",
      "city":"CABA",
      "state":"Buenos Aires",
      "area":"Congreso",
      "postal_code":"C1033",
      "country":"Argentina",
      "phone":"+54 11 4127 7100",
      "lat":-34.609824,
      "long":-58.392735,
      "price":2,
      "categories":["Edificio histórico"],
      "instagram":"https://www.instagram.com/senadoargentina/",
      "image_url":"https://www.dropbox.com/scl/fi/r93fc71jyxlwsuzz6t3tf/congreso-nacional-argentina.jpg?rlkey=kklabpq63ki0roon5fbmfvurt&raw=1"
   },
   {
      "id":29,
      "name":"Museo MALBA",
      "address":"Avenida Presidente Figueroa Alcorta 3415",
      "city":"CABA",
      "state":"Buenos Aires",
      "area":"Palermo",
      "postal_code":"C1425",
      "country":"Argentina",
      "phone":"+54 11 4808 6500",
      "lat":-34.576903,
      "long":-58.403408,
      "price":3,
      "categories":["Museo"],
      "instagram":"https://www.instagram.com/museomalba/",
      "image_url":"https://www.dropbox.com/scl/fi/rwpcdq6vxhev1zvc37ibq/malba.jpg?rlkey=1vh2tdgiow8uin3p3ti21lpqf&raw=1"
   },
   {
      "id":30,
      "name":"El Zanjón de Granados",
      "address":"Defensa 755",
      "city":"CABA",
      "state":"Buenos Aires",
      "area":"San Telmo",
      "postal_code":"C1065",
      "country":"Argentina",
      "phone":"+54 11 4361 3002",
      "lat":-34.616818,
      "long":-58.371885,
      "price":2,
      "categories":["Atracción histórica"],
      "instagram":"https://www.instagram.com/elzanjondegranados",
      "image_url":"https://www.dropbox.com/scl/fi/89s1vhikn9vf9azo8eghn/el-zanjon.jpg?rlkey=ew6wm74stk3d11b205zshjrpk&raw=1"
   },
   {
      "id":31,
      "name":"Basílica de Luján",
      "address":"San Martín 51",
      "city":"Luján",
      "state":"Buenos Aires",
      "area":"Luján",
      "postal_code":"B6700",
      "country":"Argentina",
      "phone":"+54 223 421 070",
      "lat":-34.651303,
      "long":-59.431547,
      "price":3,
      "categories":["Iglesia"],
      "instagram":"https://www.instagram.com/santuariodelujan/",
      "image_url":"https://www.dropbox.com/scl/fi/st98740op25paad52hqmn/basilica-lujan.jpg?rlkey=yzcek91tz1f4iwwdzmu1ao85s&raw=1"
   },
   {
      "id":32,
      "name":"Plaza de Mayo",
      "address":"Av. Hipólito Yrigoyen s/n",
      "city":"CABA",
      "state":"Buenos Aires",
      "area":"Monserrat",
      "postal_code":"C1087",
      "country":"Argentina",
      "phone":"+54 11 4312 2232",
      "lat":-34.608461,
      "long":-58.372179,
      "price":1,
      "categories":["Plaza"],
      "instagram":"-",
      "image_url":"https://www.dropbox.com/scl/fi/qqz7xo5jyje5iljd33nhc/plaza-de-mayo.jpg?rlkey=rdpi6i1fgp5aqz2f44no6tanf&raw=1"
   },
   {
      "id":33,
      "name":"Madero Tango",
      "address":"Avenida Alicia Moreau de Justo y Av. Brasil 2150",
      "city":"CABA",
      "state":"Buenos Aires",
      "area":"Puerto Madero",
      "postal_code":"C1107",
      "country":"Argentina",
      "phone":"+54 11 5239 3009",
      "lat":-34.623713,
      "long":-58.363795,
      "price":3,
      "categories":["Espectáculo"],
      "instagram":"https://www.instagram.com/maderotangook/",
      "image_url":"https://www.dropbox.com/scl/fi/5sfhdv55x02ptjdlhbm55/MaderoTango.jpg?rlkey=794dsn0fum7f1sctrpf7w174l&raw=1"
   },
   {
      "id":34,
      "name":"Estadio Alberto J. Armando (La Bombonera)",
      "address":"Brandsen 805",
      "city":"CABA",
      "state":"Buenos Aires",
      "area":"La Boca",
      "postal_code":"C1161",
      "country":"Argentina",
      "phone":"+54 11 5777 1200",
      "lat":-34.635675,
      "long":-58.364766,
      "price":2,
      "categories":["Estadio"],
      "instagram":"https://www.instagram.com/bocajrs/",
      "image_url":"https://www.dropbox.com/scl/fi/jmfjti3zz4i5fh7bkztkt/la-bombonera.jpg?rlkey=mshu60lkwgvkf3gzuge52z3za&raw=1"
   },
   {
      "id":35,
      "name":"Estadio Más Monumental River Plate",
      "address":"Av. Pres. Figueroa Alcorta 7597",
      "city":"CABA",
      "state":"Buenos Aires",
      "area":"Nuñez",
      "postal_code":"C1428",
      "country":"Argentina",
      "phone":"+54 11 4789 1200",
      "lat":-34.545325,
      "long":-58.449755,
      "price":2,
      "categories":["Estadio"],
      "instagram":"https://www.instagram.com/riverplate/",
      "image_url":"https://www.dropbox.com/scl/fi/o3uxs7hk4wulggcvc1b8l/mas-monumental.jpg?rlkey=h7o29ebgdbo9sdusik13uqbka&raw=1"
   },
   {
      "id":36,
      "name":"Museo - Estadio Diego Armando Maradona",
      "address":"Gavilán 2151",
      "city":"CABA",
      "state":"Buenos Aires",
      "area":"Villa General Mitre",
      "postal_code":"C1416",
      "country":"Argentina",
      "phone":"+54 11 4581 1243",
      "lat":-34.606078,
      "long":-58.472667,
      "price":2,
      "categories":["Museo"],
      "instagram":"https://www.instagram.com/museoaaaj/",
      "image_url":"https://www.dropbox.com/scl/fi/2oh8c078upbp2dcpy796l/museo-Diego-Armando-Maradona.jpg?rlkey=i1qxbm6frtamhiw9uq3v2nppn&raw=1"
   }
]
