[
    {
        "id": 700,
        "name": "Paseo de las Artes",
        "address": "Pje Reveol 299",
        "city": "Cordoba",
        "state": "Cordoba",
        "area": "Cordoba",
        "postal_code": "--",
        "country": "Argentina",
        "phone": "--",
        "lat": -31.423738,
        "long": -64.192107,
        "price": "$",
        "categories": ["Mercado", "Aire libre"],
        "instagram": "https://www.instagram.com/paseo_de_las_artes/?hl=es",
        "image_url": "https://www.dropbox.com/scl/fi/gucpq4f36wx0qybr53p6q/paseo-de-las-artes.jpg?rlkey=liq12n30pa9615y1y396y5oum&raw=1",
        "placeType": "Paseos",
        "placeDescription": "Un icónico mercado de arte y antigüedades en Córdoba, donde artesanos y diseñadores exhiben sus productos. Es un excelente lugar para comprar recuerdos y disfrutar del ambiente bohemio de la ciudad."
    },
    {
        "id": 701,
        "name": "Cathedral of Córdoba",
        "address": "Independencia 80",
        "city": "Cordoba",
        "state": "Cordoba",
        "area": "Cordoba",
        "postal_code": "--",
        "country": "Argentina",
        "phone": "+54 351 422 3446",
        "lat": -31.416734,
        "long": -64.184782,
        "price": "$",
        "categories": ["Catedral", "Lugar Religioso"],
        "instagram": "https://www.instagram.com/lacatedraldecordoba/?hl=es",
        "image_url": "https://www.dropbox.com/scl/fi/defxvdvy794jy6g5offlg/catedral-de-cordoba-2.jpg?rlkey=9u2f9hbehe86q7fdtophgggmy&raw=1",
        "placeType": "Paseos",
        "placeDescription": "La iglesia más importante de Córdoba y una de las más antiguas de Argentina. Su arquitectura colonial y su historia la convierten en un atractivo imperdible para quienes visitan la ciudad."
    },
    {
        "id": 702,
        "name": "Paseo del Buen Pastor",
        "address": "Av. Hipólito Yrigoyen 325",
        "city": "Cordoba",
        "state": "Cordoba",
        "area": "Cordoba",
        "postal_code": "--",
        "country": "Argentina",
        "phone": "+54 351 433 2691",
        "lat": -31.423924,
        "long": -64.186464,
        "price": "$",
        "categories": ["Paseo", "Lugar Historico"],
        "instagram": "https://www.instagram.com/paseobuenpastor/?hl=es",
        "image_url": "https://www.dropbox.com/scl/fi/gucpq4f36wx0qybr53p6q/paseo-de-las-artes.jpg?rlkey=liq12n30pa9615y1y396y5oum&raw=1",
        "placeType": "Paseos",
        "placeDescription": "Un centro cultural y recreativo ubicado en un antiguo edificio religioso. Ofrece exposiciones de arte, espectáculos y un hermoso patio con una fuente de aguas danzantes."
    },
    {
        "id": 703,
        "name": "Camino de las Altas Cumbres",
        "address": "--",
        "city": "Cordoba",
        "state": "Cordoba",
        "area": "Cordoba",
        "postal_code": "--",
        "country": "Argentina",
        "phone": "--",
        "lat": -31.581620,
        "long": -64.658901,
        "price": "$",
        "categories": ["Lago", "Paisajes de Montaña"],
        "instagram": "--",
        "image_url": "https://www.dropbox.com/scl/fi/o9zbnk6iqhrgwn5epg6me/camino-altas-cumbres-2.jpg?rlkey=h97gayxyt2cjg2x5ziv21jau0&raw=1",
        "placeType": "Paseos",
        "placeDescription": "Una de las rutas más escénicas de Córdoba, que atraviesa las sierras y ofrece vistas panorámicas espectaculares. Ideal para los amantes de la naturaleza y el turismo aventura."
    },
    {
        "id": 704,
        "name": "Iglesia de Los Capuchinos",
        "address": "Buenos Aires 693",
        "city": "Cordoba",
        "state": "Cordoba",
        "area": "Cordoba",
        "postal_code": "--",
        "country": "Argentina",
        "phone": "+54 351 468 1922",
        "lat": -31.424293,
        "long": -64.185745,
        "price": "$",
        "categories": ["Iglesia", "Catedral"],
        "instagram": "https://www.instagram.com/capuchinoscbaok/?hl=es",
        "image_url": "https://www.dropbox.com/scl/fi/l8pjwd6m4wejljztgxk8l/Iglesia-de-los-Capuchinos-15-111.jpg?rlkey=ryqihnht32pq163ur7wwrfl2h&raw=1",
        "placeType": "Paseos",
        "placeDescription": "Una de las iglesias más bellas de Córdoba, famosa por su arquitectura neogótica y sus coloridos vitrales. Es un sitio emblemático de la ciudad y una parada obligatoria para los visitantes."
    },
    {
        "id": 705,
        "name": "Los Tuneles de Taninga",
        "address": "--",
        "city": "Cordoba",
        "state": "Cordoba",
        "area": "Cordoba",
        "postal_code": "--",
        "country": "Argentina",
        "phone": "--",
        "lat": -31.373628,
        "long": -65.371820,
        "price": "$",
        "categories": ["Monumentos", "Lugar de interes"],
        "instagram": "--",
        "image_url": "https://www.dropbox.com/scl/fi/gbfbi7f97kpy04fab2vgl/los-tuneles.jpg?rlkey=9l2shfa6hpv5n31gd5w0rt0c2&raw=1",
        "placeType": "Paseos",
        "placeDescription": "Los Túneles de Taninga son un impresionante recorrido escénico en las Sierras de Córdoba. Construidos a principios del siglo XX, ofrecen vistas panorámicas espectaculares de quebradas y montañas, convirtiéndolos en un atractivo imperdible para los amantes de la naturaleza y la fotografía."
    },
    {
        "id": 706,
        "name": "Bros. Comedor",
        "address": "Calle 27 de Abril 568 Piso 2",
        "city": "Cordoba",
        "state": "Cordoba",
        "area": "Cordoba",
        "postal_code": "--",
        "country": "Argentina",
        "phone": "+54 351 802 9418",
        "lat": -31.414720,
        "long": -64.192011,
        "price": "$$ - $$$",
        "categories": ["Internacional", "Contemporanea"],
        "instagram": "https://www.instagram.com/broscomedor/?hl=es",
        "image_url": "https://www.dropbox.com/scl/fi/uizk04d6hfo0jcy6mw7xi/bros-2.jpg?rlkey=kwgdomqv9py99tjjlwiyyxcwm&raw=1",
        "placeType": "Resto",
        "placeDescription": "Bros. Comedor es un restaurante contemporáneo en el centro de Córdoba, conocido por su cocina de autor y su enfoque en ingredientes frescos y de alta calidad. Su ambiente moderno y acogedor lo convierten en una excelente opción para disfrutar de una experiencia gastronómica única."
    },
    {
        "id": 707,
        "name": "Es Tostadores",
        "address": "Av Rafael Nuñez 4401 Cerro de la Rosas",
        "city": "Cordoba",
        "state": "Cordoba",
        "area": "Cordoba",
        "postal_code": "--",
        "country": "Argentina",
        "phone": "+54 351 860 4040",
        "lat": -31.367339,
        "long": -64.234353,
        "price": "$$$ - $$$$",
        "categories": ["Cafe", "Saludable"],
        "instagram": "https://www.instagram.com/es.tostadores/?hl=es",
        "image_url": "https://www.dropbox.com/scl/fi/2s7o8u16ga2nihtouffhz/es-tostadores.jpg?rlkey=spcmg67kv7f07mxd3ccn06ip9&raw=1",
        "placeType": "Cafe",
        "placeDescription": "Es Tostadores es una cafetería de especialidad en Cerro de las Rosas, Córdoba. Se destaca por su selección de granos de café de alta calidad y su ambiente relajado, ideal para disfrutar de un buen café acompañado de opciones saludables y deliciosas."
    },
    {
        "id": 708,
        "name": "Santa Calma",
        "address": "Av. Deodoro Roca S/N Sarmiento Park",
        "city": "Cordoba",
        "state": "Cordoba",
        "area": "Cordoba",
        "postal_code": "--",
        "country": "Argentina",
        "phone": "+54 351 614 6374",
        "lat": -31.431865,
        "long": -64.172910,
        "price": "$$ - $$$",
        "categories": ["Bar", "Argentina"],
        "instagram": "https://www.instagram.com/santacalmaresto/?hl=es",
        "image_url": "https://www.dropbox.com/scl/fi/s1h7awexvwsn27bql0jf5/santa-calma-2.jpg?rlkey=hlujfeid90ss9x0alf6vhjdoj&raw=1",
        "placeType": "Resto",
        "placeDescription": "Ubicado en el Parque Sarmiento, Santa Calma es un restaurante y bar con un ambiente relajado y vistas únicas. Ofrece una propuesta gastronómica innovadora con platos inspirados en la cocina argentina y una excelente selección de cócteles."
    },
    {
        "id": 709,
        "name": "San Honorato",
        "address": "25 de Mayo 1208",
        "city": "Cordoba",
        "state": "Cordoba",
        "area": "Cordoba",
        "postal_code": "--",
        "country": "Argentina",
        "phone": "--",
        "lat": -31.415223,
        "long": -64.166615,
        "price": "$$$ - $$$$",
        "categories": ["Italiana", "Mediterranea"],
        "instagram": "https://www.instagram.com/sanhonorato.ok/?hl=es",
        "image_url": "https://www.dropbox.com/scl/fi/ktk7bqzzcvsv63l0w8sp0/san-honorato.jpg?rlkey=ubyrsng70hrddrq6ymgxe70pn&raw=1",
        "placeType": "Resto",
        "placeDescription": "San Honorato es un exclusivo restaurante en Córdoba que combina la tradición italiana y mediterránea con un toque de sofisticación. Su cava de vinos y su servicio personalizado lo convierten en un lugar ideal para una cena especial."
    },
    {
        "id": 710,
        "name": "Káapeh Café Gourmet",
        "address": "Obispo Trejo 775",
        "city": "Cordoba",
        "state": "Cordoba",
        "area": "Cordoba",
        "postal_code": "--",
        "country": "Argentina",
        "phone": "+54 351 202 5984",
        "lat": -31.424821,
        "long": -64.189148,
        "price": "$ - $$",
        "categories": ["Cafe", "Apto Vegano"],
        "instagram": "https://www.instagram.com/kaapeh.cordoba/?hl=es",
        "image_url": "https://www.dropbox.com/scl/fi/nze4a7k69huybajvah3l4/kaapeh-2.jpg?rlkey=h5opexhmcgvpvgi7qy5ydhu62&raw=1",
        "placeType": "Cafe",
        "placeDescription": "Ubicado en el corazón de Córdoba, Káapeh Café Gourmet es un lugar ideal para los amantes del café de especialidad. Ofrece una selección de granos cuidadosamente elegidos y opciones aptas para veganos en un ambiente cálido y acogedor."
    },
    {
        "id": 711,
        "name": "Le Dureau Café de Especialidad",
        "address": "Entre Rios 25",
        "city": "Cordoba",
        "state": "Cordoba",
        "area": "Cordoba",
        "postal_code": "--",
        "country": "Argentina",
        "phone": "+54 351 601 6091",
        "lat": -31.417935,
        "long": -64.184927,
        "price": "$$ - $$$",
        "categories": ["Cafe"],
        "instagram": "https://www.instagram.com/ledureaucafe/?hl=es",
        "image_url": "https://www.dropbox.com/scl/fi/d0i4oasob79qexugkc95r/le-dureau-2.jpg?rlkey=dqgjdzddar5j2f0zgjh4r418c&raw=1",
        "placeType": "Cafe",
        "placeDescription": "Le Dureau es un café de especialidad que destaca por su meticuloso proceso de selección y tostado de granos. Con un ambiente moderno y relajado, es un punto de encuentro ideal para disfrutar de un café de calidad y pastelería artesanal."
    },
    {
        "id": 712,
        "name": "Bruncheria",
        "address": "Achával Rodríguez 244",
        "city": "Cordoba",
        "state": "Cordoba",
        "area": "Cordoba",
        "postal_code": "--",
        "country": "Argentina",
        "phone": "+54 9 351 208 3857",
        "lat": -31.424290,
        "long": -64.191322,
        "price": "$$ - $$$",
        "categories": ["Cafe", "Argentina"],
        "instagram": "https://www.instagram.com/bruncheria/?hl=es",
        "image_url": "https://www.dropbox.com/scl/fi/uqr6dqs7zz7nkjasc54vf/bruncheria.jpg?rlkey=mawl0nboz83w85jo18yeucto3&raw=1",
        "placeType": "Cafe",
        "placeDescription": "Bruncheria es el lugar perfecto para quienes disfrutan de un desayuno o brunch completo. Con opciones dulces y saladas, además de café de especialidad, es una excelente opción para arrancar el día con energía en Córdoba."
    },
    {
        "id": 713,
        "name": "Pizza Italia",
        "address": "Lavalleja 1388 Barrio Cofico",
        "city": "Cordoba",
        "state": "Cordoba",
        "area": "Cordoba",
        "postal_code": "--",
        "country": "Argentina",
        "phone": "+54 9 351 471 0606",
        "lat": -31.399757,
        "long": -64.185857,
        "price": "$$ - $$$",
        "categories": ["Pizzería", "Argentina"],
        "instagram": "https://www.instagram.com/pizzaitaliaresto/?hl=es",
        "image_url": "https://www.dropbox.com/scl/fi/rajbo28y5qlx5q9ox401g/pizza-italia-2.jpg?rlkey=vpm849h488omercl6r5ifu926&raw=1",
        "placeType": "Pizzería",
        "placeDescription": "Pizza Italia es un clásico de Córdoba, reconocido por su auténtica pizza estilo napolitano. Con ingredientes frescos y una masa perfectamente horneada, este lugar es un imperdible para los amantes de la pizza artesanal."
    },
    {
        "id": 714,
        "name": "Di Solito",
        "address": "Santa Rosa 826 27 de Abril",
        "city": "Cordoba",
        "state": "Cordoba",
        "area": "Cordoba",
        "postal_code": "--",
        "country": "Argentina",
        "phone": "+54 351 425 4321",
        "lat": -31.409207,
        "long": -64.193772,
        "price": "$$ - $$$",
        "categories": ["Italiana", "Pizzería"],
        "instagram": "https://www.instagram.com/disolito.oficial/?hl=es",
        "image_url": "https://www.dropbox.com/scl/fi/jhh9936gvnuqti0a3x004/di-solito.jpg?rlkey=z2wug24omwazq7jud6vtiqh2j&raw=1",
        "placeType": "Pizzería",
        "placeDescription": "Di Solito ofrece una combinación de gastronomía italiana con el toque distintivo de la pizza argentina. Su ambiente cálido y su variada carta lo convierten en una gran opción para disfrutar en familia o con amigos."
    },
    {
        "id": 715,
        "name": "Quadrata Pizza & focacce",
        "address": "Calle 9 de Julio 458",
        "city": "Cordoba",
        "state": "Cordoba",
        "area": "Cordoba",
        "postal_code": "--",
        "country": "Argentina",
        "phone": "+54 351 421 1290",
        "lat": -31.318649,
        "long": -64.306469,
        "price": "$",
        "categories": ["Italiana", "Pizzería"],
        "instagram": "--",
        "image_url": "https://www.dropbox.com/scl/fi/s6ivd10ul23qo7j56wy38/quadrata-pizza-focacce-2.jpg?rlkey=6vhao6arzum6felpan685e72v&raw=1",
        "placeType": "Pizzería",
        "placeDescription": "Pizzería especializada en pizzas de masa madre y focaccias, con un estilo rústico y auténtico. Ideal para los amantes de la pizza al estilo italiano."
    },
    {
        "id": 716,
        "name": "Pan Plano",
        "address": "Av. Richieri 3283 Barrio Jardín",
        "city": "Cordoba",
        "state": "Cordoba",
        "area": "Cordoba",
        "postal_code": "--",
        "country": "Argentina",
        "phone": "+54 9 351 531 8456",
        "lat": -31.450498,
        "long": -64.176501,
        "price": "$$ - $$$",
        "categories": ["Italiana", "Pizzería"],
        "instagram": "https://www.instagram.com/panplano/?hl=es",
        "image_url": "https://www.dropbox.com/scl/fi/kcy95cnyjjhpek8jjij91/pan-plano-listo-2.jpg?rlkey=q5husew3fmscz3anm7ufqhoq7&raw=1",
        "placeType": "Pizzería",
        "placeDescription": "Restaurante de pizzas gourmet al estilo napolitano, con ingredientes frescos y opciones innovadoras. Ofrece una gran variedad de sabores y una atmósfera acogedora."
    },
    {
        "id": 717,
        "name": "Ganesha",
        "address": "Francisco N. de Laprida 165",
        "city": "Cordoba",
        "state": "Cordoba",
        "area": "Cordoba",
        "postal_code": "--",
        "country": "Argentina",
        "phone": "+54 351 264 8555",
        "lat": -31.423672,
        "long": -64.189920,
        "price": "$$ - $$$",
        "categories": ["Boliche", "Bar"],
        "instagram": "https://www.instagram.com/ganesha.cordoba/?hl=es",
        "image_url": "https://www.dropbox.com/scl/fi/hbc91kyhzkc0ww1wt106u/ganesha-2.jpg?rlkey=rr4ttp2hmx9idm5pd5c3czhgp&raw=1",
        "placeType": "Bar",
        "placeDescription": "Bar y boliche con un ambiente vibrante y decoración exótica. Ofrece una gran variedad de tragos y música en vivo para disfrutar la noche cordobesa."
    },
    {
        "id": 718,
        "name": "Planta Alta Clarkes Whiskey Bar",
        "address": "Derqui 225",
        "city": "Cordoba",
        "state": "Cordoba",
        "area": "Cordoba",
        "postal_code": "--",
        "country": "Argentina",
        "phone": "+54 351 557 1711",
        "lat": -31.426430,
        "long": -64.185058,
        "price": "$$ - $$$",
        "categories": ["Bar", "Whiskey"],
        "instagram": "https://www.instagram.com/plantaaltawb/",
        "image_url": "https://www.dropbox.com/scl/fi/dxlvyujlhqwsixug7h0vl/planta-alta-clarkes-whiskey-2.jpg?rlkey=csp88bi98b2qjlzdf81b4rf76&raw=1",
        "placeType": "Bar",
        "placeDescription": "Bar especializado en whiskey con una amplia selección de etiquetas nacionales e internacionales. Ideal para disfrutar de una noche sofisticada con buenos tragos."
    },
    {
        "id": 719,
        "name": "Cochera - Birreria de barrio",
        "address": "Mariano Fragueiro 1562",
        "city": "Cordoba",
        "state": "Cordoba",
        "area": "Cordoba",
        "postal_code": "--",
        "country": "Argentina",
        "phone": "+54 9 351 531 8456",
        "lat": -31.397276,
        "long": -64.186317,
        "price": "$$",
        "categories": ["Bar", "Boliche"],
        "instagram": "https://www.instagram.com/panplano/?hl=es",
        "image_url": "https://www.dropbox.com/scl/fi/kcy95cnyjjhpek8jjij91/pan-plano-listo-2.jpg?rlkey=q5husew3fmscz3anm7ufqhoq7&raw=1",
        "placeType": "Bar",
        "placeDescription": "Cervecería artesanal con un ambiente relajado y opciones de comida callejera. Un excelente lugar para disfrutar de una buena cerveza con amigos."
    }
]
