[
    {
        "id": 500,
        "name": "Lago Argentino",
        "address": "--",
        "city": "El Calafate",
        "state": "Santa Cruz",
        "area": "El Calafate",
        "postal_code": "--",
        "country": "Argentina",
        "phone": "--",
        "lat": -50.235880,
        "long": -72.382020,
        "price": "$$ - $$$",
        "categories": ["Lago", "Paisajes de Montaña"],
        "instagram": "--",
        "image_url": "https://www.dropbox.com/scl/fi/uo9j1hwr2fm9htgxecw8t/Lago-argentino-2.jpg?rlkey=t9us0l9nuc6djd8wkyqf7mo8k&raw=1",
        "placeType": "Paseos",
        "placeDescription": "El Lago Argentino es el lago más grande de Argentina y una de las principales atracciones de El Calafate. Sus aguas turquesas, rodeadas de montañas y glaciares, ofrecen vistas impresionantes y diversas actividades como navegación y avistamiento de témpanos."
    },
    {
        "id": 501,
        "name": "Pasarelas Perito Moreno",
        "address": "--",
        "city": "El Calafate",
        "state": "Santa Cruz",
        "area": "El Calafate",
        "postal_code": "--",
        "country": "Argentina",
        "phone": "--",
        "lat": -50.469159,
        "long": -73.030010,
        "price": "$$ - $$$",
        "categories": ["Lago", "Glaciares"],
        "instagram": "--",
        "image_url": "https://www.dropbox.com/scl/fi/7h3e1k8ztgpcdqufnx2b8/perito-moreno-2.jpg?rlkey=dyh6zg4tzfssxxbtxnsz98ear&raw=1",
        "placeType": "Paseos",
        "placeDescription": "Las pasarelas del Glaciar Perito Moreno ofrecen vistas espectaculares de uno de los glaciares más icónicos del mundo. El recorrido permite observar de cerca los desprendimientos de hielo y la inmensidad del paisaje patagónico."
    },
    {
        "id": 502,
        "name": "Glaciarium",
        "address": "--",
        "city": "El Calafate",
        "state": "Santa Cruz",
        "area": "El Calafate",
        "postal_code": "--",
        "country": "Argentina",
        "phone": "--",
        "lat": -50.336501,
        "long": -72.339870,
        "price": "$$ - $$$",
        "categories": ["Museo especializado"],
        "instagram": "https://www.instagram.com/glaciarium.elcalafate/",
        "image_url": "https://www.dropbox.com/scl/fi/su7kai5lp6aql7ny2uh1h/glaciarium-museo-del-2.jpg?rlkey=vbsh0z5dvkbyijtes7g06o9ko&raw=1",
        "placeType": "Paseos",
        "placeDescription": "Glaciarium es un museo interactivo dedicado a los glaciares y la región patagónica. Ofrece exhibiciones sobre la historia, la ciencia y la conservación de los glaciares, además de contar con un bar de hielo para una experiencia única."
    },
    {
        "id": 503,
        "name": "Laguna Nimez Reserva Natural Municipal",
        "address": "--",
        "city": "El Calafate",
        "state": "Santa Cruz",
        "area": "El Calafate",
        "postal_code": "--",
        "country": "Argentina",
        "phone": "--",
        "lat": -50.324987,
        "long": -72.268676,
        "price": "$$ - $$$",
        "categories": ["Laguna", "Reserva Ecologica"],
        "instagram": "https://www.instagram.com/lagunanimez/?hl=es",
        "image_url": "https://www.dropbox.com/scl/fi/clxxrs3tqwly69gjsg0zi/laguna-nimez-2.jpg?rlkey=j8ui9tmoadkj2e4k74jaqihzk&raw=1",
        "placeType": "Paseos",
        "placeDescription": "Laguna Nimez es una reserva natural ideal para el avistamiento de aves y la conexión con la naturaleza. Es un refugio para flamencos y otras especies autóctonas, con senderos señalizados y vistas hermosas de la laguna y el Lago Argentino."
    },
    {
        "id": 504,
        "name": "Rustico Asador y Parrilla",
        "address": "Av Costanera Kirchner 5291",
        "city": "El Calafate",
        "state": "Santa Cruz",
        "area": "El Calafate",
        "postal_code": "--",
        "country": "Argentina",
        "phone": "+54 2902 49 3699",
        "lat":  -50.337240,
        "long": -72.299330,
        "price": "$$ - $$$",
        "categories": ["Churrasqueria", "Parrilla"],
        "instagram": "https://www.instagram.com/rustico.parrilla/?hl=es",
        "image_url": "https://www.dropbox.com/scl/fi/8cxfgf9x4mmt5te06t49e/rustico-2.jpg?rlkey=qax97yr2vhx5lzkqtdk5lsjbm&raw=1",
        "placeType": "Resto",
        "placeDescription": "Rustico Asador y Parrilla es un restaurante ideal para disfrutar de la auténtica parrilla argentina. Ofrece cortes de carne premium, cordero patagónico y una excelente selección de vinos en un ambiente rústico y acogedor."
    },
    {
        "id": 505,
        "name": "Mako Fuegos y Vino",
        "address": "Av Del Libertador 1223",
        "city": "El Calafate",
        "state": "Santa Cruz",
        "area": "El Calafate",
        "postal_code": "--",
        "country": "Argentina",
        "phone": "+54 2902 49 3414",
        "lat": -50.338442,
        "long": -72.266693,
        "price": "$$ - $$$",
        "categories": ["Contemporanea", "Argentina"],
        "instagram": "https://www.instagram.com/mako_fuegosyvinos/?hl=es",
        "image_url": "https://www.dropbox.com/scl/fi/m2hcjqc2t1dyu5atpaomt/mako-fuegos-y-vinos-fachada-2.jpg?rlkey=d2lhecs8lewjlxdn9441yl2n6&raw=1",
        "placeType": "Resto",
        "placeDescription": "Un restaurante contemporáneo en El Calafate que combina la cocina argentina con un enfoque moderno. Destacado por su selección de vinos y carnes a la parrilla, ofrece una experiencia gastronómica elegante con un ambiente acogedor."
    },
    {
        "id": 506,
        "name": "Pura Vida Resto Bar",
        "address": "Av Del Libertador 1876",
        "city": "El Calafate",
        "state": "Santa Cruz",
        "area": "El Calafate",
        "postal_code": "--",
        "country": "Argentina",
        "phone": "+54 2902 49 3356",
        "lat": -50.338860,
        "long": -72.278420,
        "price": "$$ - $$$",
        "categories": ["Latina", "Saludable"],
        "instagram": "https://www.instagram.com/puravidacalafate/?hl=es",
        "image_url": "https://www.dropbox.com/scl/fi/rswlmcbns3x94ebji5yze/Pura-Vida-El-Calafate-Frente.jpg-2.webp?rlkey=ymcsrs74v9nw5r0j9esz9ip6v&raw=1",
        "placeType": "Resto",
        "placeDescription": "Un restaurante de comida latina y saludable con platos caseros y opciones reconfortantes. Es conocido por su ambiente relajado y sus porciones generosas, ideal para disfrutar de una comida nutritiva después de un día de excursiones."
    },
    {
        "id": 507,
        "name": "Don Pichon",
        "address": "Puerto Deseado 252",
        "city": "El Calafate",
        "state": "Santa Cruz",
        "area": "El Calafate",
        "postal_code": "--",
        "country": "Argentina",
        "phone": "+54 2902 40-2858",
        "lat": -50.333146,
        "long": -72.255545,
        "price": "$$ - $$$",
        "categories": ["Churrasqueria", "Parrillada"],
        "instagram": "https://www.instagram.com/donpichonfte/?hl=es",
        "image_url": "https://www.dropbox.com/scl/fi/59ypi4k376jjau9gt3x0d/don-pichon-2.jpg?rlkey=b4tkquhf3s50nryrqzpkavbcp&raw=1",
        "placeType": "Resto",
        "placeDescription": "Una parrilla tradicional con vista panorámica a El Calafate, famosa por sus cortes de carne a la parrilla y su cordero patagónico. Un lugar perfecto para quienes buscan una auténtica experiencia gastronómica patagónica."
    },
    {
        "id": 508,
        "name": "La Tablita",
        "address": "Calle Cnel de Marina Rosales 28",
        "city": "El Calafate",
        "state": "Santa Cruz",
        "area": "El Calafate",
        "postal_code": "--",
        "country": "Argentina",
        "phone": "+54 2902 49 1065",
        "lat": -50.337981,
        "long": -72.257348,
        "price": "$$ - $$$",
        "categories": ["Churrasqueria", "Parrillada"],
        "instagram": "https://www.instagram.com/latablitaelcalafate/?hl=es",
        "image_url": "https://www.dropbox.com/scl/fi/nkadqbh5q4adjww27uqry/la-tablita-2.jpg?rlkey=be7j9n3nosuqvl2hb0tpgaie9&raw=1",
        "placeType": "Resto",
        "placeDescription": "Un clásico de El Calafate, especializado en carnes a la parrilla y platos típicos de la región. Con más de 50 años de historia, es una referencia en la ciudad para disfrutar de una buena parrillada en un ambiente cálido y familiar."
    },
    {
        "id": 509,
        "name": "Elba'r",
        "address": "9 de Julio 57 Paseo de los Pájaros",
        "city": "El Calafate",
        "state": "Santa Cruz",
        "area": "El Calafate",
        "postal_code": "--",
        "country": "Argentina",
        "phone": "+54 2902 49 2997",
        "lat": -50.337588,
        "long": -72.264689,
        "price": "$$ - $$$",
        "categories": ["Postre", "Cafe","Waffles"],
        "instagram": "https://www.instagram.com/elbarcalafate/",
        "image_url": "https://www.dropbox.com/scl/fi/ww2ls0d2uwdv2fr4vlzy3/elbar-2.jpg?rlkey=m9nu8fbzmcqxy23ute6zdjkpb&raw=1",
        "placeType": "Cafe",
        "placeDescription": "Un café y pastelería con un ambiente moderno y acogedor. Conocido por sus waffles, postres y café de especialidad, es un excelente lugar para disfrutar de una merienda o un desayuno dulce en el corazón de El Calafate."
    },
    {
        "id": 510,
        "name": "Chocolates Patagonia",
        "address": "Avenida Del Libertador N° 1250",
        "city": "El Calafate",
        "state": "Santa Cruz",
        "area": "El Calafate",
        "postal_code": "--",
        "country": "Argentina",
        "phone": "+54 2902 49 2423",
        "lat": -50.338127,
        "long": -72.267391,
        "price": "$$ - $$$",
        "categories": ["Postres", "Cafe"],
        "instagram": "https://www.instagram.com/chocolates.patagonia/",
        "image_url": "https://www.dropbox.com/scl/fi/kunphx9yglwo5ul1107px/chocolates-patagonia-2.jpg?rlkey=zmyappnyg2776mkg0srp19j44&raw=1",
        "placeType": "Cafe",
        "placeDescription": "Una chocolatería emblemática en El Calafate, conocida por su amplia variedad de chocolates artesanales y su acogedor café. Un lugar ideal para disfrutar de un delicioso chocolate caliente, acompañarlo con repostería de primera calidad y comprar recuerdos dulces de la Patagonia."
    },
    {
        "id": 511,
        "name": "Panaderia y Confiteria Don Luis",
        "address": "Av Del Libertador 1536",
        "city": "El Calafate",
        "state": "Santa Cruz",
        "area": "El Calafate",
        "postal_code": "--",
        "country": "Argentina",
        "phone": "+54 2902 48 9750",
        "lat": -50.335448,
        "long": -72.265132,
        "price": "$$ - $$$",
        "categories": ["Panaderia", "Cafe"],
        "instagram": "https://www.instagram.com/panaderiadonluis/?hl=es",
        "image_url": "https://www.dropbox.com/scl/fi/mgj6oddnszyx93qfzxtif/don-luis-2.jpg?rlkey=ypkc9pozepelw772rcqjkuzj5&raw=1",
        "placeType": "Cafe",
        "placeDescription": "Una de las panaderías más tradicionales de El Calafate, famosa por su pastelería artesanal, facturas y panes frescos. Además de ofrecer una excelente variedad de productos dulces y salados, cuenta con un espacio para disfrutar de café y meriendas en un ambiente cálido."
    },
    {
        "id": 512,
        "name": "La Lechuza Pizzas",
        "address": "Av Del Libertador 1301",
        "city": "El Calafate",
        "state": "Santa Cruz",
        "area": "El Calafate",
        "postal_code": "--",
        "country": "Argentina",
        "phone": "+54 2902 49 1610",
        "lat": -50.338488,
        "long": -72.268190,
        "price": "$$ - $$$",
        "categories": ["Pizzería", "Argentina"],
        "instagram": "https://www.instagram.com/lalechuzapizzas/?hl=es",
        "image_url": "https://www.dropbox.com/scl/fi/drq1puif8kodiodyas0l4/la-lechuza.jpg?rlkey=gvi3ory6c6havacy587tpb9xk&raw=1",
        "placeType": "Pizzería",
        "placeDescription": "Una pizzería clásica en El Calafate, reconocida por sus generosas pizzas de masa fina y su variada selección de ingredientes. Con un ambiente informal y acogedor, es una excelente opción para disfrutar de una comida relajada después de un día de excursiones."
    },
    {
        "id": 513,
        "name": "Pizzeria Napoleon",
        "address": "Gdor Gregores 997",
        "city": "El Calafate",
        "state": "Santa Cruz",
        "area": "El Calafate",
        "postal_code": "--",
        "country": "Argentina",
        "phone": "+54 2902 49 5455",
        "lat": -50.336929,
        "long": -72.262906,
        "price": "$$ - $$$",
        "categories": ["Italiana", "Pizzería"],
        "instagram": "https://www.instagram.com/napoleon_elcalafate/",
        "image_url": "https://www.dropbox.com/scl/fi/okhyvhdlum4x7yltrhc14/pizzeria-napoleon-2.jpg?rlkey=fryfiuk0lv70s21uaadjn9pgu&raw=1",
        "placeType": "Pizzería",
        "placeDescription": "Un rincón ideal para los amantes de la pizza al estilo italiano. Destaca por su masa crocante, sus ingredientes de calidad y su atención amigable. Además de sus pizzas, ofrece pastas y otros platos típicos de la cocina italiana en un ambiente familiar."
    },
    {
        "id": 514,
        "name": "El Gaita Pizza Bar",
        "address": "Gdor. Moyano N°1089",
        "city": "El Calafate",
        "state": "Santa Cruz",
        "area": "El Calafate",
        "postal_code": "--",
        "country": "Argentina",
        "phone": "+54 2902 49 0500",
        "lat": -50.336067,
        "long": -72.264840,
        "price": "$$ - $$$",
        "categories": ["Italiana", "Pizzería"],
        "instagram": "https://www.instagram.com/elgaitapizza/?hl=es",
        "image_url": "https://www.dropbox.com/scl/fi/xv31y5fpn1fnffay4hrfw/el-gaita-2.jpg?rlkey=85v695wetcbxo136il72qizll&raw=1",
        "placeType": "Pizzería",
        "placeDescription": "Un restaurante de estilo moderno que combina la tradición de la pizza con un ambiente animado de bar. Sus pizzas artesanales, su variedad de cervezas y su excelente atención lo convierten en un lugar perfecto para compartir una cena con amigos o en pareja."
    },
    {
        "id": 515,
        "name": "Nina Pasion y Sabores",
        "address": "Avenida Del Libertador 998",
        "city": "El Calafate",
        "state": "Santa Cruz",
        "area": "El Calafate",
        "postal_code": "--",
        "country": "Argentina",
        "phone": "+54 2966 63 0680",
        "lat": -50.337789,
        "long": -72.262788,
        "price": "$$ - $$$",
        "categories": ["Latina", "Argentina"],
        "instagram": "https://www.instagram.com/ninapasionysabores/?hl=es",
        "image_url": "https://www.dropbox.com/scl/fi/jz0ct7lv679dr64eq7yrv/nina5-2.jpg?rlkey=ttx939j0jmt7l645mlmy5d3in&raw=1",
        "placeType": "Bar",
        "placeDescription": "Un bar-restaurante con un ambiente acogedor, ideal para disfrutar de la gastronomía argentina y latina en El Calafate. Ofrece una variedad de platos caseros, postres y opciones para compartir."
    },
    {
        "id": 516,
        "name": "Mako Premium Bar",
        "address": "Av Del Libertador 1202",
        "city": "El Calafate",
        "state": "Santa Cruz",
        "area": "El Calafate",
        "postal_code": "--",
        "country": "Argentina",
        "phone": "+54 2902 49 1402",
        "lat": -50.338087,
        "long": -72.266438,
        "price": "$$ - $$$",
        "categories": ["Cerveceria", "Bar"],
        "instagram": "https://www.instagram.com/mako__bar/?hl=es",
        "image_url": "https://www.dropbox.com/scl/fi/nbk5n4xwkiw6a1458uq1q/mako-bar.jpg?rlkey=zo45b7cspbs1g9zvmsgqwckgp&raw=1",
        "placeType": "Bar",
        "placeDescription": "Un bar premium con una amplia selección de cervezas artesanales y cócteles exclusivos. Su ambiente moderno y relajado lo convierte en un excelente lugar para disfrutar de una noche con amigos."
    },
    {
        "id": 517,
        "name": "Cerveza Patagonia",
        "address": "Avenida Del Libertador 997",
        "city": "El Calafate",
        "state": "Santa Cruz",
        "area": "El Calafate",
        "postal_code": "--",
        "country": "Argentina",
        "phone": "+54 2902 48 8355",
        "lat": -50.338141,
        "long": -72.262884,
        "price": "$$ - $$$",
        "categories": ["Cerveceria", "Bar"],
        "instagram": "https://www.instagram.com/patagonia.calafate/?hl=es",
        "image_url": "https://www.dropbox.com/scl/fi/m221x00djs81tlqi8rn2p/cerveza-patagonia-2.jpg?rlkey=7zmryn2r3ic283cb0kw7ohjo8&raw=1",
        "placeType": "Bar",
        "placeDescription": "Parte de la reconocida marca Cerveza Patagonia, este bar ofrece una experiencia única con vistas impresionantes y una selección de cervezas artesanales acompañadas de platos regionales."
    },
    {
        "id": 518,
        "name": "La Oveja Negra Calafate",
        "address": "Avenida Del Libertador 761",
        "city": "El Calafate",
        "state": "Santa Cruz",
        "area": "El Calafate",
        "postal_code": "--",
        "country": "Argentina",
        "phone": "+54 2902 49 4664",
        "lat": -50.338491,
        "long": -72.259632,
        "price": "$$ - $$$",
        "categories": ["Cerveceria", "Bar"],
        "instagram": "https://www.instagram.com/laovejanegracalafate/?hl=es",
        "image_url": "https://www.dropbox.com/scl/fi/nmj5fmbq7le4qjonxfm8y/la-oveja-2.jpg?rlkey=5gl2e3zdv1etr7cn0z0xbatda&raw=1",
        "placeType": "Bar",
        "placeDescription": "Un bar con un estilo rústico y relajado, ideal para disfrutar de cervezas artesanales y tragos en un ambiente animado. Frecuentado tanto por locales como por turistas."
    }
]
