[
    {
        "id": 600,
        "name": "Garganta del Diablo",
        "address": "--",
        "city": "Iguazú",
        "state": "Misiones",
        "area": "Iguazú",
        "postal_code": "--",
        "country": "Argentina",
        "phone": "--",
        "lat": -25.695576,
        "long": -54.437320,
        "price": "--",
        "categories": ["Cascada"],
        "instagram": "--",
        "image_url": "https://www.dropbox.com/scl/fi/32w2g6hzfj6ig38an6bmz/garganta.jpg?rlkey=pnhmgtpnc434t5g1gdzqo27fe&raw=1",
        "placeType": "Paseos",
        "placeDescription": "La Garganta del Diablo es el salto más impresionante de las Cataratas del Iguazú. Con una caída de 80 metros, ofrece un espectáculo único de la fuerza del agua en medio de la selva misionera."
    },
    {
        "id": 601,
        "name": "Cataratas del Iguazú",
        "address": "--",
        "city": "Iguazú",
        "state": "Misiones",
        "area": "Iguazú",
        "postal_code": "--",
        "country": "Argentina",
        "phone": "--",
        "lat": -25.693374,
        "long": -54.437063,
        "price": "--",
        "categories": ["Cascada"],
        "instagram": "https://www.instagram.com/iguazuargentina/?hl=es",
        "image_url": "https://www.dropbox.com/scl/fi/e1qadeut7k0ad7k24835e/cataratas-iguazu.jpg?rlkey=49lxw9p8nhehqzgwx6jra4w4j&raw=1",
        "placeType": "Paseos",
        "placeDescription": "Las Cataratas del Iguazú son una de las siete maravillas naturales del mundo, con más de 270 saltos de agua rodeados de exuberante vegetación y una gran diversidad de fauna autóctona."
    },
    {
        "id": 602,
        "name": "Jardin de los Picaflores",
        "address": "Fray Luis Beltran 150",
        "city": "Iguazú",
        "state": "Misiones",
        "area": "Iguazú",
        "postal_code": "--",
        "country": "Argentina",
        "phone": "+54 9 3757 45 8498",
        "lat": -25.600320,
        "long": -54.568528,
        "price": "--",
        "categories": ["Naturaleza","Fauna"],
        "instagram": "https://www.instagram.com/jardindelospicaflores/?hl=es",
        "image_url": "https://www.dropbox.com/scl/fi/ax9w3oqj0sma0myggbvfn/jardin-de-los-picaflores-2.jpg?rlkey=e9cnnwwfjcvezaeplw97nbson&raw=1",
        "placeType": "Paseos",
        "placeDescription": "Un refugio natural donde se pueden observar distintas especies de picaflores en su hábitat. Ideal para los amantes de la fotografía y la naturaleza."
    },
    {
        "id": 603,
        "name": "La Aripuca",
        "address": "--",
        "city": "Iguazú",
        "state": "Misiones",
        "area": "Iguazú",
        "postal_code": "--",
        "country": "Argentina",
        "phone": "+54 3757 42 3488",
        "lat": -25.618413,
        "long": -54.558346,
        "price": "--",
        "categories": ["Monumento","Lugar de interés"],
        "instagram": "https://www.instagram.com/aripucaiguazu/?hl=es",
        "image_url": "https://www.dropbox.com/scl/fi/gtxn4wum813mtxu0xhrj0/la-aripuca-2.jpg?rlkey=rhlphmhsri061nmc56t510dmb&raw=1",
        "placeType": "Paseos",
        "placeDescription": "Un monumento ecológico construido con troncos gigantes rescatados de la deforestación. Su estructura simboliza una trampa indígena y busca concientizar sobre el cuidado del medio ambiente."
    },
    {
        "id": 604,
        "name": "Güirá Oga",
        "address": "RN12 1638",
        "city": "Iguazú",
        "state": "Misiones",
        "area": "Iguazú",
        "postal_code": "--",
        "country": "Argentina",
        "phone": "+54 3757 15 53 4246",
        "lat": -25.626165,
        "long": -54.548504,
        "price": "--",
        "categories": ["Vida silvestre"],
        "instagram": "https://www.instagram.com/guira_oga/?hl=es",
        "image_url": "https://www.dropbox.com/scl/fi/7x4lu9zyey68gxm9uv6r3/guira-oga.jpg?rlkey=ikjmw2xrupqykih03k8d4gdfx&raw=1",
        "placeType": "Paseos",
        "placeDescription": "Un refugio de fauna silvestre dedicado a la rehabilitación y conservación de animales rescatados de tráfico ilegal o accidentes. Un paseo educativo y ecológico en plena selva misionera."
    },
    {
        "id": 605,
        "name": "Parque Nacional Iguazú",
        "address": "Ruta 101 Km 142",
        "city": "Iguazú",
        "state": "Misiones",
        "area": "Iguazú",
        "postal_code": "--",
        "country": "Argentina",
        "phone": "+54 3757 15 67 4714",
        "lat": -25.647248,
        "long": -54.285069,
        "price": "--",
        "categories": ["Parque Nacional"],
        "instagram": "https://www.instagram.com/parque.nacional.iguazu/?hl=es",
        "image_url": "https://www.dropbox.com/scl/fi/t4pua7g0b8w0hl3on8ogw/parque-iguazu.jpg?rlkey=1pj8mplsan0jwa5sy6kggep7k&raw=1",
        "placeType": "Paseos",
        "placeDescription": "El Parque Nacional Iguazú alberga las famosas Cataratas del Iguazú, una de las maravillas naturales del mundo. Ofrece senderos, pasarelas y paseos en bote que permiten experimentar la majestuosidad de las caídas de agua y la exuberante selva misionera."
    },
    {
        "id": 606,
        "name": "Sendero Macuco",
        "address": "--",
        "city": "Iguazú",
        "state": "Misiones",
        "area": "Iguazú",
        "postal_code": "--",
        "country": "Argentina",
        "phone": "--",
        "lat": -25.677750,
        "long": -54.451992,
        "price": "--",
        "categories": ["Vida Silvestre","Senderos"],
        "instagram": "--",
        "image_url": "https://www.dropbox.com/scl/fi/6k866fcobh1plm8qn83bq/Sendero-Macuco.jpg?rlkey=8w6s0nt9fnoplbdanonjfj70a&raw=1",
        "placeType": "Paseos",
        "placeDescription": "Un sendero natural dentro del Parque Nacional Iguazú que permite adentrarse en la selva y observar su flora y fauna. Al final del recorrido, se encuentra el Salto Arrechea, una cascada oculta donde es posible refrescarse."
    },
    {
        "id": 607,
        "name": "The Argentine Experience Iguazú",
        "address": "Av Brasil 57",
        "city": "Iguazú",
        "state": "Misiones",
        "area": "Iguazú",
        "postal_code": "--",
        "country": "Argentina",
        "phone": "+54 9 3757 40 5567",
        "lat": -25.597514,
        "long": -54.575642,
        "price": "$$$$",
        "categories": ["Latina","Argentina"],
        "instagram": "https://www.instagram.com/theargentineexperience/?hl=es",
        "image_url": "https://www.dropbox.com/scl/fi/x207wrnxtily43bnnejd2/the-argentine-2.jpg?rlkey=gljc5c56ado1w5ql6jo72cl4n&raw=1",
        "placeType": "Resto",
        "placeDescription": "Una experiencia gastronómica única donde los visitantes pueden aprender a preparar platos típicos argentinos, como empanadas y mate, en un ambiente interactivo y divertido."
    },
    {
        "id": 608,
        "name": "Aqva Restaurant",
        "address": "Avenida Cordoba S/N Carlos Thays",
        "city": "Iguazú",
        "state": "Misiones",
        "area": "Iguazú",
        "postal_code": "--",
        "country": "Argentina",
        "phone": "+54 3757 42 9700",
        "lat": -25.599742,
        "long": -54.571394,
        "price": "$$ - $$$",
        "categories": ["Latina","Argentina"],
        "instagram": "https://www.instagram.com/aqvarestaurant/?hl=es",
        "image_url": "https://www.dropbox.com/scl/fi/wqmy2hgtwxh52f2bpv36s/aqva-2.jpg?rlkey=uenlwrzv4pstlfsnqekkm04z0&raw=1",
        "placeType": "Resto",
        "placeDescription": "Un restaurante con un ambiente acogedor y una propuesta gastronómica basada en ingredientes frescos de la región, destacándose por sus pescados, mariscos y carnes argentinas."
    },
    {
        "id": 609,
        "name": "Jungle Restaurante",
        "address": "Av Hipolito Yrigoyen 353 Iguazu Jungle Lodge",
        "city": "Iguazú",
        "state": "Misiones",
        "area": "Iguazú",
        "postal_code": "--",
        "country": "Argentina",
        "phone": "+54 3757 68 4453",
        "lat": -25.594384,
        "long": -54.565594,
        "price": "$$$$",
        "categories": ["Latina","Internacional"],
        "instagram": "https://www.instagram.com/restaurantejungle/?hl=es",
        "image_url": "https://www.dropbox.com/scl/fi/eh81njeq0x6g1htj7lbyp/jungle-2.jpg?rlkey=r3hb6ajs9yzuszlp5ocw1ej76&raw=1",
        "placeType": "Resto",
        "placeDescription": "Ubicado dentro del Iguazú Jungle Lodge, este restaurante ofrece una experiencia culinaria en medio de la selva, con una carta que combina cocina internacional con sabores autóctonos."
    },
    {
        "id": 610,
        "name": "Patanegra Iguazú",
        "address": "Calle Tareferos 155",
        "city": "Iguazú",
        "state": "Misiones",
        "area": "Iguazú",
        "postal_code": "--",
        "country": "Argentina",
        "phone": "+54 3757 44 2058",
        "lat": -25.603620,
        "long": -54.566954,
        "price": "$$$$",
        "categories": ["Bar","Parrillada"],
        "instagram": "https://www.instagram.com/patanegragourmet/?hl=es",
        "image_url": "https://www.dropbox.com/scl/fi/rfk8pge0adgvfw5j4p7lt/patanegra-2.jpg?rlkey=kov8jqjyn4eqtmr1rgmdwjcuj&raw=1",
        "placeType": "Resto",
        "placeDescription": "Un restaurante especializado en carnes y parrilla argentina, con una cuidada selección de cortes y un ambiente rústico que resalta la esencia gastronómica del país."
    },
    {
        "id": 611,
        "name": "La Rueda 1975",
        "address": "Av Cordoba 28",
        "city": "Iguazú",
        "state": "Misiones",
        "area": "Iguazú",
        "postal_code": "--",
        "country": "Argentina",
        "phone": "+54 3757 69 3447",
        "lat": -25.601330,
        "long": -54.572006,
        "price": "$$ - $$$",
        "categories": ["Latina","Internacional"],
        "instagram": "https://www.instagram.com/larueda_iguazu/?hl=es",
        "image_url": "https://www.dropbox.com/scl/fi/7njbk80thuz3xvfzebkj3/la-rueda-1975-restaurante-2.jpg?rlkey=gowytvu7ga22bh4sf2apijm8p&raw=1",
        "placeType": "Resto",
        "placeDescription": "Restaurante clásico de Puerto Iguazú, conocido por su cocina de autor con sabores regionales. Destacan sus platos con pescados de río, carnes argentinas y una variada carta de vinos."
    },
    {
        "id": 612,
        "name": "Excelso Coffee Co",
        "address": "Av Misiones 88",
        "city": "Iguazú",
        "state": "Misiones",
        "area": "Iguazú",
        "postal_code": "--",
        "country": "Argentina",
        "phone": "+54 11 3292 6532",
        "lat": -25.597319,
        "long": -54.572675,
        "price": "$$ - $$$",
        "categories": ["Postres","Cafe"],
        "instagram": "https://www.instagram.com/excelso_coffee_co/",
        "image_url": "https://www.dropbox.com/scl/fi/5zw9ulm0hzg05pdku03nc/excelso-coffee-co-2.jpg?rlkey=dsvac0n6283jubx618px8ezi1&raw=1",
        "placeType": "Cafe",
        "placeDescription": "Especializado en café de especialidad, este café ofrece una excelente selección de granos y métodos de preparación. Perfecto para una pausa con pastelería artesanal y ambiente acogedor."
    },
    {
        "id": 613,
        "name": "Panaderia Y Confiteria El Arbol Real",
        "address": "Guarani 14",
        "city": "Iguazú",
        "state": "Misiones",
        "area": "Iguazú",
        "postal_code": "--",
        "country": "Argentina",
        "phone": "+54 3757 42 0213",
        "lat": -25.598322,
        "long": -54.570336,
        "price": "$ - $$",
        "categories": ["Panaderia","Confiteria"],
        "instagram": "https://www.instagram.com/elarbolrealiguazu1/?hl=es",
        "image_url": "https://www.dropbox.com/scl/fi/h6jfhlqba8n7r9tgcorew/panaderia-y-confiteria-2.jpg?rlkey=1dr95lm5kj0xosss6kavkwv9f&raw=1",
        "placeType": "Cafe",
        "placeDescription": "Panadería tradicional con una gran variedad de facturas, panes y tortas. Es un punto ideal para un desayuno o merienda con productos frescos y caseros."
    },
    {
        "id": 614,
        "name": "La Croissanterie",
        "address": "Av Güarani 4",
        "city": "Iguazú",
        "state": "Misiones",
        "area": "Iguazú",
        "postal_code": "--",
        "country": "Argentina",
        "phone": "+54 11 5869 2923",
        "lat": -25.598072,
        "long": -54.569506,
        "price": "$$",
        "categories": ["Panaderia","Confiteria"],
        "instagram": "https://www.instagram.com/panaderialacroissanterie/",
        "image_url": "https://www.dropbox.com/scl/fi/5xyk4hiubgmgf5uhhox8k/la-croissanterie-2.jpg?rlkey=w8dhb30prr5a6254yccqj3plh&raw=1",
        "placeType": "Cafe",
        "placeDescription": "Un pequeño rincón francés en Iguazú, famoso por sus croissants, éclairs y otras delicias de la pastelería europea. Ideal para quienes buscan productos de calidad y un buen café."
    },
    {
        "id": 615,
        "name": "La Misionerita",
        "address": "Calle Perito F P Moreno 207",
        "city": "Iguazú",
        "state": "Misiones",
        "area": "Iguazú",
        "postal_code": "--",
        "country": "Argentina",
        "phone": "+54 3757 42 4639",
        "lat": -25.598735,
        "long": -54.574039,
        "price": "$$ - $$$",
        "categories": ["Pizzería","Argentina"],
        "instagram": "https://www.instagram.com/lamisioneritaiguazu/",
        "image_url": "https://www.dropbox.com/scl/fi/eb9as0z4wj59bnb38kg0x/la-misionera-2.jpg?rlkey=gc2t3lp559hazlhdhmpjebw8z&raw=1",
        "placeType": "Pizzería",
        "placeDescription": "Pizzería reconocida por su masa a la piedra y variedad de ingredientes frescos. Una excelente opción para disfrutar de una pizza bien lograda en un ambiente familiar y relajado."
    },
    {
        "id": 616,
        "name": "Holy",
        "address": "Avenida Cordoba 158",
        "city": "Iguazú",
        "state": "Misiones",
        "area": "Iguazú",
        "postal_code": "--",
        "country": "Argentina",
        "phone": "+54 3757 31 0010",
        "lat": -25.598954,
        "long": -54.570632,
        "price": "$$ - $$$",
        "categories": ["Bar","Pizzería"],
        "instagram": "https://www.instagram.com/aqvarestaurant/?hl=es",
        "image_url": "https://www.dropbox.com/scl/fi/1garndlj101gjn7s8fp94/holy-2.jpg?rlkey=5rjll9koa35i11ucuzb2wvdog&raw=1",
        "placeType": "Pizzería",
        "placeDescription": "Holy es un bar y pizzería en el centro de Iguazú, ideal para disfrutar de una buena pizza artesanal y cócteles en un ambiente relajado."
    },
    {
        "id": 617,
        "name": "Parrilla Pizza Color",
        "address": "Avenida Cordoba 135",
        "city": "Iguazú",
        "state": "Misiones",
        "area": "Iguazú",
        "postal_code": "--",
        "country": "Argentina",
        "phone": "+54 3757 45 4115",
        "lat": -25.599203,
        "long": -54.571441,
        "price": "$$ - $$$",
        "categories": ["Churrasquería","Pizzería"],
        "instagram": "https://www.instagram.com/colorparrillapizza/?hl=es",
        "image_url": "https://www.dropbox.com/scl/fi/omzj1m08hx5jumna32i4u/parrilla-pizza-color-2.jpg?rlkey=kny5ui8z4uymfw7z7fjww39a7&raw=1",
        "placeType": "Pizzería",
        "placeDescription": "Parrilla Pizza Color ofrece una combinación de parrilla argentina y pizzas al horno de piedra, en un ambiente cálido y familiar."
    },
    {
        "id": 618,
        "name": "Humulus Cervecería",
        "address": "Av. Perito Moreno 261",
        "city": "Iguazú",
        "state": "Misiones",
        "area": "Iguazú",
        "postal_code": "--",
        "country": "Argentina",
        "phone": "+54 11 5951 6786",
        "lat": -25.597570,
        "long": -54.574636,
        "price": "$",
        "categories": ["Bar","Cervecería"],
        "instagram": "https://www.instagram.com/speakeasy_humulus/",
        "image_url": "https://www.dropbox.com/scl/fi/5d1gy8p5tqnqo0alprnwq/humulus-2.jpg?rlkey=hebvkc9g32gdyud46zns0w2pc&raw=1",
        "placeType": "Bar",
        "placeDescription": "Humulus es una cervecería artesanal con una gran variedad de cervezas tiradas y un ambiente estilo speakeasy en el corazón de Iguazú."
    },
    {
        "id": 619,
        "name": "Patagonia Cerveza",
        "address": "Avenida Brasil 3300",
        "city": "Iguazú",
        "state": "Misiones",
        "area": "Iguazú",
        "postal_code": "--",
        "country": "Argentina",
        "phone": "--",
        "lat": -25.595448,
        "long": -54.574738,
        "price": "$$ - $$$",
        "categories": ["Cervecería","Argentina"],
        "instagram": "https://www.instagram.com/patagonia.iguazu/?hl=es",
        "image_url": "https://www.dropbox.com/scl/fi/czyiqvxvkn2ax9qp2rsod/cerveceria-patagonia-2.jpg?rlkey=sxp5luruji1qetqxkwvh2f1fb&raw=1",
        "placeType": "Bar",
        "placeDescription": "Cervecería Patagonia ofrece una selección de cervezas artesanales en un ambiente relajado con opciones gastronómicas para acompañar."
    },
    {
        "id": 620,
        "name": "Lecker Public Bar",
        "address": "Avenida Brasil 155",
        "city": "Iguazú",
        "state": "Misiones",
        "area": "Iguazú",
        "postal_code": "--",
        "country": "Argentina",
        "phone": "+54 3757 31 8012",
        "lat": -25.595892, -54.574803
        "long": -54.574803,
        "price": "$$ - $$$",
        "categories": ["Bar","Cervecería"],
        "instagram": "--",
        "image_url": "https://www.dropbox.com/scl/fi/w0wsot1j06t2tampb2emc/public-bar-lecker-2.jpg?rlkey=mlb7i89he78nyngmebvrqp425&raw=1",
        "placeType": "Bar",
        "placeDescription": "Lecker Public Bar es un bar de estilo europeo con una amplia selección de cervezas y cócteles, ubicado en el centro de Iguazú."
    }
]
