[
    {
        "id": 800,
        "name": "Bodega Catena Zapata",
        "address": "Bodega Catena Zapata",
        "city": "Mendoza",
        "state": "Mendoza",
        "area": "Mendoza",
        "postal_code": "--",
        "country": "Argentina",
        "phone": "+54 261 413 1100",
        "lat": -33.167993,
        "long": -68.904113,
        "price": "$$$ - $$$$",
        "categories": ["Bodega", "Vinos"],
        "instagram": "https://www.instagram.com/catenawines/?hl=es",
        "image_url": "https://www.dropbox.com/scl/fi/e7wjas6ddlet12imtewu3/catena-zapata-2.jpg?rlkey=j3zezsrk1o8qtgehjnhb46o4p&raw=1",
        "placeType": "Paseos",
        "placeDescription": "Un icónico mercado de arte y antigüedades en Córdoba, donde artesanos y diseñadores exhiben sus productos. Es un excelente lugar para comprar recuerdos y disfrutar del ambiente bohemio de la ciudad."
    },
    {
        "id": 801,
        "name": "Parque Provincial Aconcagua",
        "address": "--",
        "city": "Mendoza",
        "state": "Mendoza",
        "area": "Mendoza",
        "postal_code": "--",
        "country": "Argentina",
        "phone": "--",
        "lat": -32.676418,
        "long": -69.945337,
        "price": "$",
        "categories": ["Montaña", "Aire libre"],
        "instagram": "--",
        "image_url": "https://www.dropbox.com/scl/fi/z9ptlb5j84t512putvtjz/parque-provincial-aconcagua.jpg?rlkey=jyjw17k7ez5zo3vfyftzdcsnt&raw=1",
        "placeType": "Paseos",
        "placeDescription": "Un icónico mercado de arte y antigüedades en Córdoba, donde artesanos y diseñadores exhiben sus productos. Es un excelente lugar para comprar recuerdos y disfrutar del ambiente bohemio de la ciudad."
    },
    {
        "id": 802,
        "name": "Parque General San Martín",
        "address": "--",
        "city": "Mendoza",
        "state": "Mendoza",
        "area": "Mendoza",
        "postal_code": "--",
        "country": "Argentina",
        "phone": "--",
        "lat": -32.891667,
        "long": -68.868582,
        "price": "$",
        "categories": ["Parque", "Aire libre"],
        "instagram": "--",
        "image_url": "https://www.dropbox.com/scl/fi/p8r7w6phng8hiqy0ctz91/parque-gral-san-martin-2.jpg?rlkey=xwc9sy13klkw5q44qhh0233xx&raw=1",
        "placeType": "Paseos",
        "placeDescription": "Un icónico mercado de arte y antigüedades en Córdoba, donde artesanos y diseñadores exhiben sus productos. Es un excelente lugar para comprar recuerdos y disfrutar del ambiente bohemio de la ciudad."
    },
    {
        "id": 803,
        "name": "Pulenta Estate Winery",
        "address": "Pulenta Estate Winery",
        "city": "Mendoza",
        "state": "Mendoza",
        "area": "Mendoza",
        "postal_code": "--",
        "country": "Argentina",
        "phone": "+54 9 261 507 6426",
        "lat": -33.195285,
        "long": -68.956093,
        "price": "$",
        "categories": ["Viñedo", "Bodega"],
        "instagram": "https://www.instagram.com/pulentaestate/?hl=es",
        "image_url": "https://www.dropbox.com/scl/fi/rqk7mfj2vi9bjjl8b4bu0/bodega-pulenta-2.jpg?rlkey=rmjip3u1je5bcb58qapmwdnph&raw=1",
        "placeType": "Paseos",
        "placeDescription": "Un icónico mercado de arte y antigüedades en Córdoba, donde artesanos y diseñadores exhiben sus productos. Es un excelente lugar para comprar recuerdos y disfrutar del ambiente bohemio de la ciudad."
    },
    {
        "id": 804,
        "name": "Potrerillos Dam",
        "address": "--",
        "city": "Mendoza",
        "state": "Mendoza",
        "area": "Mendoza",
        "postal_code": "--",
        "country": "Argentina",
        "phone": "--",
        "lat": -32.997119,
        "long": -69.137633,
        "price": "$",
        "categories": ["Represa", "Masa de Agua"],
        "instagram": "https://www.instagram.com/potrerillos.turismo/?hl=es",
        "image_url": "https://www.dropbox.com/scl/fi/kjixm5p1hw7bwbpr9nt64/potrerillos-2.jpg?rlkey=l9zum5qtkjndcjgwytcn9p98v&raw=1",
        "placeType": "Paseos",
        "placeDescription": "Un icónico mercado de arte y antigüedades en Córdoba, donde artesanos y diseñadores exhiben sus productos. Es un excelente lugar para comprar recuerdos y disfrutar del ambiente bohemio de la ciudad."
    },
    {
        "id": 805,
        "name": "Parque de Agua Termas Cacheuta",
        "address": "Termas de Cacheuta",
        "city": "Mendoza",
        "state": "Mendoza",
        "area": "Mendoza",
        "postal_code": "--",
        "country": "Argentina",
        "phone": "+54 9 261 519 1676",
        "lat": -33.019300,
        "long": -69.114643,
        "price": "$$",
        "categories": ["Termas", "Parque acuatico"],
        "instagram": "https://www.instagram.com/parque_de_agua_termascacheuta/?hl=es",
        "image_url": "https://www.dropbox.com/scl/fi/zf21kymqd46k2sbbj08de/termas-cacheuta-2.jpg?rlkey=dhkjt6frq9kr7pzcta1erowpm&raw=1",
        "placeType": "Paseos",
        "placeDescription": "Un icónico mercado de arte y antigüedades en Córdoba, donde artesanos y diseñadores exhiben sus productos. Es un excelente lugar para comprar recuerdos y disfrutar del ambiente bohemio de la ciudad."
    },
    {
        "id": 806,
        "name": "Plaza Independencia",
        "address": "Plaza Independencia",
        "city": "Mendoza",
        "state": "Mendoza",
        "area": "Mendoza",
        "postal_code": "--",
        "country": "Argentina",
        "phone": "+54 261 425 7279",
        "lat": -32.890527,
        "long": -68.845419,
        "price": "$",
        "categories": ["Plaza", "Parque"],
        "instagram": "--",
        "image_url": "https://www.dropbox.com/scl/fi/o7gveqa7u8nv6i3oeu55o/plaza-independencia-2.jpg?rlkey=tpu3tevn3pbjws2sgomxftglg&raw=1",
        "placeType": "Paseos",
        "placeDescription": "Un icónico mercado de arte y antigüedades en Córdoba, donde artesanos y diseñadores exhiben sus productos. Es un excelente lugar para comprar recuerdos y disfrutar del ambiente bohemio de la ciudad."
    },
    {
        "id": 807,
        "name": "Zonda Cocina De Paisaje",
        "address": "Calle San Martin 1745",
        "city": "Mendoza",
        "state": "Mendoza",
        "area": "Lujan de Cuyo",
        "postal_code": "--",
        "country": "Argentina",
        "phone": "+54 9 261 302-3412",
        "lat": -33.023201,
        "long": -68.872608,
        "price": "$$$$",
        "categories": ["Saludable", "Argentina"],
        "instagram": "https://www.instagram.com/Zonda.Lagarde/?locale=French&hl=am-et",
        "image_url": "https://www.dropbox.com/scl/fi/y3djwjglrabfxdyyqsv25/zonda-cocina-2.jpg?rlkey=0g2araim080qzsc6go6waygdj&raw=1",
        "placeType": "Resto",
        "placeDescription": "Un icónico mercado de arte y antigüedades en Córdoba, donde artesanos y diseñadores exhiben sus productos. Es un excelente lugar para comprar recuerdos y disfrutar del ambiente bohemio de la ciudad."
    },
    {
        "id": 808,
        "name": "Carolino Cocina de Estación",
        "address": "Av. Perú 860 Frente A La Plaza Italia",
        "city": "Mendoza",
        "state": "Mendoza",
        "area": "Mendoza",
        "postal_code": "--",
        "country": "Argentina",
        "phone": "+54 261 333 3518",
        "lat": -32.892012,
        "long": -68.849204,
        "price": "$$ - $$$",
        "categories": ["Parrilla", "Contemporanea"],
        "instagram": "https://www.instagram.com/carolinococina/?hl=es",
        "image_url": "https://www.dropbox.com/scl/fi/h94mi93e9z2x1sjsj8gln/carolino-2.jpg?rlkey=wvm51td1jumtfq8pjx19su9b5&raw=1",
        "placeType": "Resto",
        "placeDescription": "Un icónico mercado de arte y antigüedades en Córdoba, donde artesanos y diseñadores exhiben sus productos. Es un excelente lugar para comprar recuerdos y disfrutar del ambiente bohemio de la ciudad."
    },
    {
        "id": 809,
        "name": "Auténtico",
        "address": "Av. Sarmiento 777",
        "city": "Mendoza",
        "state": "Mendoza",
        "area": "Mendoza",
        "postal_code": "--",
        "country": "Argentina",
        "phone": "+54 261 341 7507",
        "lat": -32.888673,
        "long": -68.849165,
        "price": "$$$ - $$$$",
        "categories": ["Internacional", "Contemporanea"],
        "instagram": "https://www.instagram.com/autentico.mendoza/?hl=es",
        "image_url": "https://www.dropbox.com/scl/fi/k0wkwcn2zwgux9irp2a25/autentico-cocina-contemporanea-2.jpg?rlkey=ofj5ngadlv5kws550f7ln2mf2&raw=1",
        "placeType": "Resto",
        "placeDescription": "Un icónico mercado de arte y antigüedades en Córdoba, donde artesanos y diseñadores exhiben sus productos. Es un excelente lugar para comprar recuerdos y disfrutar del ambiente bohemio de la ciudad."
    },
    {
        "id": 810,
        "name": "Fogón Cocina de Viñedo",
        "address": "Calle San Martin 1745",
        "city": "Mendoza",
        "state": "Mendoza",
        "area": "Mendoza",
        "postal_code": "--",
        "country": "Argentina",
        "phone": "+54 9 261 681 5961",
        "lat": -33.023891,
        "long": -68.873356,
        "price": "$$$$",
        "categories": ["Bar de Vinos", "Argentina"],
        "instagram": "https://www.instagram.com/lagardewine/",
        "image_url": "https://www.dropbox.com/scl/fi/u6i5joenj19ok1xz3jtu5/bodega-lagarde-restaurant-2.jpg?rlkey=1c8d31hasluf2pbd5se84qlob&raw=1",
        "placeType": "Resto",
        "placeDescription": "Un icónico mercado de arte y antigüedades en Córdoba, donde artesanos y diseñadores exhiben sus productos. Es un excelente lugar para comprar recuerdos y disfrutar del ambiente bohemio de la ciudad."
    },
    {
        "id": 811,
        "name": "Casa Vigil",
        "address": "Videla Aranda 7008 Maipú",
        "city": "Mendoza",
        "state": "Mendoza",
        "area": "Mendoza",
        "postal_code": "--",
        "country": "Argentina",
        "phone": "+54 261 341 1729",
        "lat": -33.044186,
        "long": -68.724103,
        "price": "$$$ - $$$$",
        "categories": ["Contemporanea", "Argentina"],
        "instagram": "https://www.instagram.com/paseo_de_las_artes/?hl=es",
        "image_url": "https://www.dropbox.com/scl/fi/jt6oh78d8ovogse5zyx6p/casa-vigil-2.jpg?rlkey=yu5l1zh4fs9xup0jdbw6gt3rz&raw=1",
        "placeType": "Resto",
        "placeDescription": "Un icónico mercado de arte y antigüedades en Córdoba, donde artesanos y diseñadores exhiben sus productos. Es un excelente lugar para comprar recuerdos y disfrutar del ambiente bohemio de la ciudad."
    },
    {
        "id": 812,
        "name": "Centauro Restaurante",
        "address": "Av. Peru 1156",
        "city": "Mendoza",
        "state": "Mendoza",
        "area": "Mendoza",
        "postal_code": "--",
        "country": "Argentina",
        "phone": "+54 261 206 6255",
        "lat": -32.888352,
        "long": -68.848360,
        "price": "$$$ - $$$$",
        "categories": ["Contemporanea", "Fusión"],
        "instagram": "https://www.instagram.com/centauro.restaurante/?hl=es",
        "image_url": "https://www.dropbox.com/scl/fi/2ilqenu2dig0cnf83tx16/centauro-2.jpg?rlkey=eikqxsia97ihogkp2rylyn7nt&raw=1",
        "placeType": "Resto",
        "placeDescription": "Un icónico mercado de arte y antigüedades en Córdoba, donde artesanos y diseñadores exhiben sus productos. Es un excelente lugar para comprar recuerdos y disfrutar del ambiente bohemio de la ciudad."
    },
    {
        "id": 813,
        "name": "1884 Restaurante Francis Mallmann",
        "address": "Belgrano 1188",
        "city": "Mendoza",
        "state": "Mendoza",
        "area": "Godoy Cruz",
        "postal_code": "--",
        "country": "Argentina",
        "phone": "+54 261 424 2698",
        "lat": -32.912365,
        "long": -68.843116,
        "price": "$$$$",
        "categories": ["Churrasqueria", "Argentina"],
        "instagram": "https://www.instagram.com/1884restaurante/?hl=es",
        "image_url": "https://www.dropbox.com/scl/fi/mlkx1slxc4mkt5myggyx6/francis-mallmann-2.jpg?rlkey=87wz3bgojics8vow6c1n6jevj&raw=1",
        "placeType": "Resto",
        "placeDescription": "Un icónico mercado de arte y antigüedades en Córdoba, donde artesanos y diseñadores exhiben sus productos. Es un excelente lugar para comprar recuerdos y disfrutar del ambiente bohemio de la ciudad."
    },
    {
        "id": 814,
        "name": "Azafrán Restó",
        "address": "Av. Sarmiento 765",
        "city": "Mendoza",
        "state": "Mendoza",
        "area": "Mendoza",
        "postal_code": "--",
        "country": "Argentina",
        "phone": "+54 9 261 533 4999",
        "lat": -32.888660,
        "long": -68.848888,
        "price": "$$$$",
        "categories": ["Latina", "Bar de Vinos"],
        "instagram": "https://www.instagram.com/azafranresto/?hl=es",
        "image_url": "https://www.dropbox.com/scl/fi/pouadz5snlcssxbpqfjch/azafran-2.jpg?rlkey=bkzv8uy1ymh2cqx7mrw2j0qiz&raw=1",
        "placeType": "Resto",
        "placeDescription": "Un icónico mercado de arte y antigüedades en Córdoba, donde artesanos y diseñadores exhiben sus productos. Es un excelente lugar para comprar recuerdos y disfrutar del ambiente bohemio de la ciudad."
    },
    {
        "id": 815,
        "name": "Soberana",
        "address": "Sarmiento 705",
        "city": "Mendoza",
        "state": "Mendoza",
        "area": "Mendoza",
        "postal_code": "--",
        "country": "Argentina",
        "phone": "+54 9 261 747 7721",
        "lat": -32.888837,
        "long": -68.848498,
        "price": "$$$$",
        "categories": ["Argentina"],
        "instagram": "https://www.instagram.com/soberana.resto/?hl=es",
        "image_url": "https://www.dropbox.com/scl/fi/87odexs01xxzwbld8z54c/saoberana-2.jpg?rlkey=68ohbf9e7suu3k6w0arnwd8u6&raw=1",
        "placeType": "Resto",
        "placeDescription": "Un icónico mercado de arte y antigüedades en Córdoba, donde artesanos y diseñadores exhiben sus productos. Es un excelente lugar para comprar recuerdos y disfrutar del ambiente bohemio de la ciudad."
    },
    {
        "id": 816,
        "name": "Restaurante Bodega Renacer",
        "address": "Brandsen 1863, Luján de Cuyo",
        "city": "Lujan de Cuyo",
        "state": "Mendoza",
        "area": "Mendoza",
        "postal_code": "--",
        "country": "Argentina",
        "phone": "+54 9 261 316 6555",
        "lat": -33.066646,
        "long": -68.905607,
        "price": "$$ - $$$",
        "categories": ["Bar de Vinos", "Argentina"],
        "instagram": "https://www.instagram.com/bodegarenacer/?hl=es",
        "image_url": "https://www.dropbox.com/scl/fi/rwri2tskhgnxdci9yd4w5/bodega-renacer-2.jpg?rlkey=nhbsb7jpnyujwuh56jmoosxji&raw=1",
        "placeType": "Resto",
        "placeDescription": "Un icónico mercado de arte y antigüedades en Córdoba, donde artesanos y diseñadores exhiben sus productos. Es un excelente lugar para comprar recuerdos y disfrutar del ambiente bohemio de la ciudad."
    },
    {
        "id": 817,
        "name": "Osadia de Crear",
        "address": "Cochabamba 7801",
        "city": "Lujan de Cuyo",
        "state": "Mendoza",
        "area": "Mendoza",
        "postal_code": "--",
        "country": "Argentina",
        "phone": "+54 261 498 8200",
        "lat": -33.115679,
        "long": -68.898486,
        "price": "$$$ - $$$$",
        "categories": ["Contemporanea", "Fusión"],
        "instagram": "https://www.instagram.com/osadiadecrear/?hl=es",
        "image_url": "https://www.dropbox.com/scl/fi/1pykw7fyjwephah43re8q/osadia-2.jpg?rlkey=f8bljw25185ouwf9ccxldqc6i&raw=1",
        "placeType": "Resto",
        "placeDescription": "Un icónico mercado de arte y antigüedades en Córdoba, donde artesanos y diseñadores exhiben sus productos. Es un excelente lugar para comprar recuerdos y disfrutar del ambiente bohemio de la ciudad."
    },
    {
        "id": 818,
        "name": "Osadia de Crear",
        "address": "Cochabamba 7801",
        "city": "Lujan de Cuyo",
        "state": "Mendoza",
        "area": "Mendoza",     por hacer
        "postal_code": "--",
        "country": "Argentina",
        "phone": "+54 261 498 8200",
        "lat": -33.115679,
        "long": -68.898486,
        "price": "$$$ - $$$$",
        "categories": ["Contemporanea", "Fusión"],
        "instagram": "https://www.instagram.com/osadiadecrear/?hl=es",
        "image_url": "https://www.dropbox.com/scl/fi/1pykw7fyjwephah43re8q/osadia-2.jpg?rlkey=f8bljw25185ouwf9ccxldqc6i&raw=1",
        "placeType": "Resto",
        "placeDescription": "Un icónico mercado de arte y antigüedades en Córdoba, donde artesanos y diseñadores exhiben sus productos. Es un excelente lugar para comprar recuerdos y disfrutar del ambiente bohemio de la ciudad."
    },
    {
        "id": 817,
        "name": "Osadia de Crear",
        "address": "Cochabamba 7801",
        "city": "Lujan de Cuyo",
        "state": "Mendoza",
        "area": "Mendoza",
        "postal_code": "--",
        "country": "Argentina",
        "phone": "+54 261 498 8200",
        "lat": -33.115679,
        "long": -68.898486,
        "price": "$$$ - $$$$",
        "categories": ["Contemporanea", "Fusión"],
        "instagram": "https://www.instagram.com/osadiadecrear/?hl=es",
        "image_url": "https://www.dropbox.com/scl/fi/1pykw7fyjwephah43re8q/osadia-2.jpg?rlkey=f8bljw25185ouwf9ccxldqc6i&raw=1",
        "placeType": "Resto",
        "placeDescription": "Un icónico mercado de arte y antigüedades en Córdoba, donde artesanos y diseñadores exhiben sus productos. Es un excelente lugar para comprar recuerdos y disfrutar del ambiente bohemio de la ciudad."
    },
    {
        "id": 817,
        "name": "Osadia de Crear",
        "address": "Cochabamba 7801",
        "city": "Lujan de Cuyo",
        "state": "Mendoza",
        "area": "Mendoza",
        "postal_code": "--",
        "country": "Argentina",
        "phone": "+54 261 498 8200",
        "lat": -33.115679,
        "long": -68.898486,
        "price": "$$$ - $$$$",
        "categories": ["Contemporanea", "Fusión"],
        "instagram": "https://www.instagram.com/osadiadecrear/?hl=es",
        "image_url": "https://www.dropbox.com/scl/fi/1pykw7fyjwephah43re8q/osadia-2.jpg?rlkey=f8bljw25185ouwf9ccxldqc6i&raw=1",
        "placeType": "Resto",
        "placeDescription": "Un icónico mercado de arte y antigüedades en Córdoba, donde artesanos y diseñadores exhiben sus productos. Es un excelente lugar para comprar recuerdos y disfrutar del ambiente bohemio de la ciudad."
    },
    {
        "id": 817,
        "name": "Osadia de Crear",
        "address": "Cochabamba 7801",
        "city": "Lujan de Cuyo",
        "state": "Mendoza",
        "area": "Mendoza",
        "postal_code": "--",
        "country": "Argentina",
        "phone": "+54 261 498 8200",
        "lat": -33.115679,
        "long": -68.898486,
        "price": "$$$ - $$$$",
        "categories": ["Contemporanea", "Fusión"],
        "instagram": "https://www.instagram.com/osadiadecrear/?hl=es",
        "image_url": "https://www.dropbox.com/scl/fi/1pykw7fyjwephah43re8q/osadia-2.jpg?rlkey=f8bljw25185ouwf9ccxldqc6i&raw=1",
        "placeType": "Resto",
        "placeDescription": "Un icónico mercado de arte y antigüedades en Córdoba, donde artesanos y diseñadores exhiben sus productos. Es un excelente lugar para comprar recuerdos y disfrutar del ambiente bohemio de la ciudad."
    },
    {
        "id": 817,
        "name": "Osadia de Crear",
        "address": "Cochabamba 7801",
        "city": "Lujan de Cuyo",
        "state": "Mendoza",
        "area": "Mendoza",
        "postal_code": "--",
        "country": "Argentina",
        "phone": "+54 261 498 8200",
        "lat": -33.115679,
        "long": -68.898486,
        "price": "$$$ - $$$$",
        "categories": ["Contemporanea", "Fusión"],
        "instagram": "https://www.instagram.com/osadiadecrear/?hl=es",
        "image_url": "https://www.dropbox.com/scl/fi/1pykw7fyjwephah43re8q/osadia-2.jpg?rlkey=f8bljw25185ouwf9ccxldqc6i&raw=1",
        "placeType": "Resto",
        "placeDescription": "Un icónico mercado de arte y antigüedades en Córdoba, donde artesanos y diseñadores exhiben sus productos. Es un excelente lugar para comprar recuerdos y disfrutar del ambiente bohemio de la ciudad."
    },
    {
        "id": 817,
        "name": "Osadia de Crear",
        "address": "Cochabamba 7801",
        "city": "Lujan de Cuyo",
        "state": "Mendoza",
        "area": "Mendoza",
        "postal_code": "--",
        "country": "Argentina",
        "phone": "+54 261 498 8200",
        "lat": -33.115679,
        "long": -68.898486,
        "price": "$$$ - $$$$",
        "categories": ["Contemporanea", "Fusión"],
        "instagram": "https://www.instagram.com/osadiadecrear/?hl=es",
        "image_url": "https://www.dropbox.com/scl/fi/1pykw7fyjwephah43re8q/osadia-2.jpg?rlkey=f8bljw25185ouwf9ccxldqc6i&raw=1",
        "placeType": "Resto",
        "placeDescription": "Un icónico mercado de arte y antigüedades en Córdoba, donde artesanos y diseñadores exhiben sus productos. Es un excelente lugar para comprar recuerdos y disfrutar del ambiente bohemio de la ciudad."
    },
    {
        "id": 817,
        "name": "Osadia de Crear",
        "address": "Cochabamba 7801",
        "city": "Lujan de Cuyo",
        "state": "Mendoza",
        "area": "Mendoza",
        "postal_code": "--",
        "country": "Argentina",
        "phone": "+54 261 498 8200",
        "lat": -33.115679,
        "long": -68.898486,
        "price": "$$$ - $$$$",
        "categories": ["Contemporanea", "Fusión"],
        "instagram": "https://www.instagram.com/osadiadecrear/?hl=es",
        "image_url": "https://www.dropbox.com/scl/fi/1pykw7fyjwephah43re8q/osadia-2.jpg?rlkey=f8bljw25185ouwf9ccxldqc6i&raw=1",
        "placeType": "Resto",
        "placeDescription": "Un icónico mercado de arte y antigüedades en Córdoba, donde artesanos y diseñadores exhiben sus productos. Es un excelente lugar para comprar recuerdos y disfrutar del ambiente bohemio de la ciudad."
    }
]
