[
    {
        "id": 300,
        "name": "Cafe del Convento",
        "address": "Caseros 98",
        "city": "Salta",
        "state": "Salta",
        "area": "Salta",
        "postal_code": "--",
        "country": "Argentina",
        "phone": "+54 387 431 0182",
        "lat": -34.591149,
        "long": -58.427926,
        "price": "$$ - $$$",
        "categories": ["Cafe"],
        "instagram": "https://www.instagram.com/cafedelconvento_salta/?hl=es",
        "image_url": "https://www.dropbox.com/scl/fi/u73aza544sxpmll4j3tgk/Cefe-del-convento-2.jpg?rlkey=w6bgvgdon8gk87ptz6c0qz892&raw=1",
        "placeType": "Cafe",
        "placeDescription": "Un lugar acogedor en Palermo Soho, ideal para disfrutar de deliciosas opciones de repostería y café artesanal."
    },
    {
        "id": 301,
        "name": "Van Gogh Cafe",
        "address": "España 502",
        "city": "Salta",
        "state": "Salta",
        "area": "Salta",
        "postal_code": "--",
        "country": "Argentina",
        "phone": "+54 387 431 4659",
        "lat": -34.591149,
        "long": -58.427926,
        "price": "$$ - $$$",
        "categories": ["Cafe", "Bar"],
        "instagram": "https://www.instagram.com/cafevangogh_/",
        "image_url": "https://www.dropbox.com/scl/fi/6y2vdb88nt2oc38kfe9qf/van-gogh.jpg?rlkey=lz4d9ytpfjyslpdtv0p2fdyyd&raw=1",
        "placeType": "Cafe",
        "placeDescription": "Un lugar acogedor en Palermo Soho, ideal para disfrutar de deliciosas opciones de repostería y café artesanal."
    },
    {
        "id": 302,
        "name": "La Fiamma",
        "address": "Catamarca 370",
        "city": "Salta",
        "state": "Salta",
        "area": "Salta",
        "postal_code": "--",
        "country": "Argentina",
        "phone": "+54 387 422 3266",
        "lat": -34.591149,
        "long": -58.427926,
        "price": "$$ - $$$",
        "categories": ["Pizzeria", "Restaurant"],
        "instagram": "https://www.instagram.com/lafiamma.sla/?hl=es-la",
        "image_url": "https://www.dropbox.com/scl/fi/wtqhy0tol9jl49ljqzu7t/la-fiamma.jpg?rlkey=lp7fxnw9naaz0eg7ofyc1g3fk&raw=1",
        "placeType": "Pizzeria",
        "placeDescription": "Un lugar acogedor en Palermo Soho, ideal para disfrutar de deliciosas opciones de repostería y café artesanal."
    },
    {
        "id": 303,
        "name": "Oh Pizza Resto",
        "address": "Gral Güemes 192",
        "city": "Salta",
        "state": "Salta",
        "area": "Salta",
        "postal_code": "--",
        "country": "Argentina",
        "phone": "+54 387 609 2895",
        "lat": -34.591149,
        "long": -58.427926,
        "price": "$$ - $$$",
        "categories": ["Pizzeria", "Restaurant"],
        "instagram": "https://www.instagram.com/oh_pizzaresto/?hl=es",
        "image_url": "https://www.dropbox.com/scl/fi/vep39i86xfpiy0km7abl9/oh-pizze.jpeg?rlkey=f6rsv3azc4z196cq3xzwtyv9d&raw=1",
        "placeType": "Pizzeria",
        "placeDescription": "Un lugar acogedor en Palermo Soho, ideal para disfrutar de deliciosas opciones de repostería y café artesanal."
    },
    {
        "id": 304,
        "name": "Bier Cerveceria Artesanal",
        "address": "Alvarado 96",
        "city": "Salta",
        "state": "Salta",
        "area": "Salta",
        "postal_code": "--",
        "country": "Argentina",
        "phone": "+54 387 20 1933",
        "lat": -34.591149,
        "long": -58.427926,
        "price": "$$ - $$$",
        "categories": ["Bar", "Cerveceria"],
        "instagram": "https://www.instagram.com/biercerveceriaartesanal/?hl=es",
        "image_url": "https://www.dropbox.com/scl/fi/1djqzyms1eqmgqxfjwtxl/bier.jpg?rlkey=iblx5pvzbvxa8ecrmb14615aq&raw=1",
        "placeType": "Bar",
        "placeDescription": "Un lugar acogedor en Palermo Soho, ideal para disfrutar de deliciosas opciones de repostería y café artesanal."
    },
    {
        "id": 305,
        "name": "Cerveceria Patagonia - Refugio Salta",
        "address": "Juramento 334",
        "city": "Salta",
        "state": "Salta",
        "area": "Salta",
        "postal_code": "--",
        "country": "Argentina",
        "phone": "+54 387 245 2248",
        "lat": -34.591149,
        "long": -58.427926,
        "price": "$$ - $$$",
        "categories": ["Bar", "Cerveceria"],
        "instagram": "https://www.instagram.com/explore/locations/104629554312700/cerveza-patagonia/?next=%2Fmahayel11%2F",
        "image_url": "https://www.dropbox.com/scl/fi/zmzczrv03tnn8k1qz0m3s/paragonia.jpg?rlkey=byazlxwrtg39usay141bzwf3x&raw=1",
        "placeType": "Bar",
        "placeDescription": "Un lugar acogedor en Palermo Soho, ideal para disfrutar de deliciosas opciones de repostería y café artesanal."
    },
    {
        "id": 306,
        "name": "El Méson Restaurante y Bar",
        "address": "Balcarce 252, Hotel Alejandro I",
        "city": "Salta",
        "state": "Salta",
        "area": "Salta",
        "postal_code": "--",
        "country": "Argentina",
        "phone": "+54 387 400 0000",
        "lat": -34.591149,
        "long": -58.427926,
        "price": "$$ - $$$",
        "categories": ["Bar", "Restaurante"],
        "instagram": "https://www.instagram.com/alejandro1hotel/?hl=es",
        "image_url": "https://www.dropbox.com/scl/fi/ucyy5zt9gg3iixtnk5quk/el-meson.jpg?rlkey=aghrvxpxbpmi29ohhujejbx1b&raw=1",
        "placeType": "Resto",
        "placeDescription": "Un lugar acogedor en Palermo Soho, ideal para disfrutar de deliciosas opciones de repostería y café artesanal."
    },
    {
        "id": 307,
        "name": "Adobe Cocina Regional",
        "address": "Caseros 511 1er Piso",
        "city": "Salta",
        "state": "Salta",
        "area": "Salta",
        "postal_code": "--",
        "country": "Argentina",
        "phone": "+54 387 403 6308",
        "lat": -34.591149,
        "long": -58.427926,
        "price": "$$ - $$$",
        "categories": ["Bar", "Restaurante","Regional"],
        "instagram": "https://www.instagram.com/complejoadobe/",
        "image_url": "https://www.dropbox.com/scl/fi/or6z48ufyqf8qcywmq90e/adobe.jpg?rlkey=9d1meyt4qvbb7gnfwdobocrhh&raw=1",
        "placeType": "Resto",
        "placeDescription": "Un lugar acogedor en Palermo Soho, ideal para disfrutar de deliciosas opciones de repostería y café artesanal."
    },
    {
        "id": 308,
        "name": "La Casona del Molino",
        "address": "Cnel L Burela 1 y Caseros",
        "city": "Salta",
        "state": "Salta",
        "area": "Salta",
        "postal_code": "--",
        "country": "Argentina",
        "phone": "+54 387 434 2835",
        "lat": -34.591149,
        "long": -58.427926,
        "price": "$$ - $$$",
        "categories": ["Latina", "Restaurante","Regional"],
        "instagram": "https://www.instagram.com/casonadelmolino/?hl=es",
        "image_url": "https://www.dropbox.com/scl/fi/v8znqmy0ek2ekj8yckad6/la-casona.jpeg?rlkey=de6xp9q6pnvtawg00ddtfuvxq&raw=1",
        "placeType": "Resto",
        "placeDescription": "Un lugar acogedor en Palermo Soho, ideal para disfrutar de deliciosas opciones de repostería y café artesanal."
    },
    {
        "id": 309,
        "name": " Museo de Arqueología de Alta Montaña de Salta",
        "address": "Bartolome Mitre 77",
        "city": "Salta",
        "state": "Salta",
        "area": "Salta",
        "postal_code": "--",
        "country": "Argentina",
        "phone": "+54 387 437 0592",
        "lat": -34.591149,
        "long": -58.427926,
        "price": "$$ - $$$",
        "categories": ["Museo"],
        "instagram": "--",
        "image_url": "https://www.dropbox.com/scl/fi/wmb5hpya7ldw8i048atbj/maam-museo-de-arqueologia.jpg?rlkey=wyixd6hjesvrikr1fk640374d&raw=1",
        "placeType": "Paseos",
        "placeDescription": "Un lugar acogedor en Palermo Soho, ideal para disfrutar de deliciosas opciones de repostería y café artesanal."
    },
    {
        "id": 310,
        "name": "Cuesta del Obispo",
        "address": "--",
        "city": "Salta",
        "state": "Salta",
        "area": "Salta",
        "postal_code": "--",
        "country": "Argentina",
        "phone": "--",
        "lat": -34.591149,
        "long": -58.427926,
        "price": "$$ - $$$",
        "categories": ["Montaña"],
        "instagram": "--",
        "image_url": "https://www.dropbox.com/scl/fi/5tw69kf3yer5vd9f3kcyd/cuesta-2.jpg?rlkey=fiem3xym5abl6yt4n40j0ehd9&raw=1",
        "placeType": "Paseos",
        "placeDescription": "Un lugar acogedor en Palermo Soho, ideal para disfrutar de deliciosas opciones de repostería y café artesanal."
    },
    {
        "id": 311,
        "name": "Teleferico San Bernardo",
        "address": "Av San Martin y Av Hipolito Yrigoyen",
        "city": "Salta",
        "state": "Salta",
        "area": "Salta",
        "postal_code": "--",
        "country": "Argentina",
        "phone": "+54 387 431 0641",
        "lat": -34.591149,
        "long": -58.427926,
        "price": "$$ - $$$",
        "categories": ["Teleferico"],
        "instagram": "--",
        "image_url": "https://www.dropbox.com/scl/fi/ekd0yh1d9ftfdd51g2djd/teleferico-2.jpg?rlkey=6qwjnotpg04jpdpe1qd5bet4t&raw=1",
        "placeType": "Paseos",
        "placeDescription": "Un lugar acogedor en Palermo Soho, ideal para disfrutar de deliciosas opciones de repostería y café artesanal."
    }
]
