[
    {
        "id": 400,
        "name": "Alma Mora",
        "address": "Av Arrayanes 150",
        "city": "Villa La Angostura",
        "state": "Neuquen",
        "area": "Villa La Angostura",
        "postal_code": "--",
        "country": "Argentina",
        "phone": "+54 294 448 8145",
        "lat": -40.762098,
        "long": -71.644474,
        "price": "$$ - $$$",
        "categories": ["Cafe", "Apto Veganos"],
        "instagram": "https://www.instagram.com/almamora.vla/?hl=es",
        "image_url": "https://www.dropbox.com/scl/fi/k789doyerq3ir90thsrvl/alma-mora-2.jpg?rlkey=gln23xa0o4pqberupxussi0x8&raw=1",
        "placeType": "Cafe",
        "placeDescription": "Un encantador café en Villa La Angostura que ofrece opciones saludables y aptas para veganos. Ideal para disfrutar de un ambiente cálido y relajado, acompañado de exquisitas opciones de repostería y café de especialidad."
    },
    {
        "id": 401,
        "name": "Cucu Schulz",
        "address": "Av Arrayanes 44",
        "city": "Villa La Angostura",
        "state": "Neuquen",
        "area": "Villa La Angostura",
        "postal_code": "--",
        "country": "Argentina",
        "phone": "+54 294 449 5671",
        "lat": -40.762118,
        "long": -71.646682,
        "price": "$$ - $$$",
        "categories": ["Cafe", "Postres"],
        "instagram": "https://www.instagram.com/cucuschulz/?hl=es",
        "image_url": "https://www.dropbox.com/scl/fi/1hmfys1c8klsbbmx186d2/cucu.jpg?rlkey=imz3ngiw0atpshbkm5g9z5agm&raw=1",
        "placeType": "Cafe",
        "placeDescription": "Un pintoresco café en el corazón de Villa La Angostura, famoso por sus deliciosos postres y ambiente acogedor. Perfecto para una merienda especial con opciones artesanales y sabores únicos."
    },
    {
        "id": 402,
        "name": "Casa de Te Margaritas",
        "address": "Boulevard Nahuel Huapi 34",
        "city": "Villa La Angostura",
        "state": "Neuquen",
        "area": "Villa La Angostura",
        "postal_code": "--",
        "country": "Argentina",
        "phone": "+54 294 496 9956",
        "lat": -40.765783,
        "long": -71.647730,
        "price": "$$ - $$$",
        "categories": ["Cafe", "Delicatessen"],
        "instagram": "https://www.instagram.com/margaritas.cafe.casadete/",
        "image_url": "https://www.dropbox.com/scl/fi/yr3a0kxmpim9n6wf9yu9e/casa-de-te-margaritas-2.jpg?rlkey=c3zrpe4ttltk77385oyql8a4j&raw=1",
        "placeType": "Cafe",
        "placeDescription": "Una casa de té con encanto, rodeada de naturaleza, donde se pueden degustar infusiones artesanales y una selección de exquisitas tortas y dulces. Un lugar ideal para una pausa tranquila en Villa La Angostura."
    },
    {
        "id": 403,
        "name": "La Tasca",
        "address": "Av De Los Arrayanes 6155 Km 2109.5",
        "city": "Villa La Angostura",
        "state": "Neuquen",
        "area": "Villa La Angostura",
        "postal_code": "--",
        "country": "Argentina",
        "phone": "+54 294 478 8994",
        "lat": -40.794122,
        "long": -71.593676,
        "price": "$$ - $$$",
        "categories": ["Mariscos", "Española"],
        "instagram": "https://www.instagram.com/latascavla/?hl=es",
        "image_url": "https://www.dropbox.com/scl/fi/m4xdoqeaxkui50oyptxa7/la-tasca-2.jpg?rlkey=yexi833cjvvqqk5ysqacde31b&raw=1",
        "placeType": "Resto",
        "placeDescription": "Un restaurante con auténtica cocina española y mariscos frescos, en un ambiente cálido y familiar. La opción perfecta para disfrutar de paellas, tapas y platos tradicionales de España en Villa La Angostura."
    },
    {
        "id": 404,
        "name": "Mirador Lake Cuisine",
        "address": "Ruta 40 Km 2119,8",
        "city": "Villa La Angostura",
        "state": "Neuquen",
        "area": "Villa La Angostura",
        "postal_code": "--",
        "country": "Argentina",
        "phone": "+54 294 431 1426",
        "lat": -40.725001,
        "long": -71.686950,
        "price": "$$ - $$$",
        "categories": ["Internacional", "Veganos"],
        "instagram": "https://www.instagram.com/miradorlakecuisine/?hl=es",
        "image_url": "https://www.dropbox.com/scl/fi/y4ysibo1zpgx0zhc69sk5/mirador-lake-cuisine.jpg?rlkey=l8ke60p1v8tolp4w8z8yjcpph&raw=1",
        "placeType": "Resto",
        "placeDescription": "Un restaurante con impresionantes vistas al lago Nahuel Huapi, especializado en cocina internacional con opciones para veganos. Un espacio ideal para una experiencia gastronómica inolvidable en un entorno natural espectacular."
    },
    {
        "id": 405,
        "name": "Al Alba Parrilla",
        "address": "Av De Los Arrayanes 270 Local 11 Galeria Mamushka",
        "city": "Villa La Angostura",
        "state": "Neuquen",
        "area": "Villa La Angostura",
        "postal_code": "--",
        "country": "Argentina",
        "phone": "+54 294 424 1094",
        "lat": -40.762874,
        "long": -71.642469,
        "price": "$$ - $$$",
        "categories": ["Parrilla", "Argentina"],
        "instagram": "https://www.instagram.com/alalbaparrilla/?hl=es",
        "image_url": "https://www.dropbox.com/scl/fi/ta4rimmgl84rw8oxvzji7/al-alba-2.jpg?rlkey=hvxfa717eu5yf06auu26vbrxq&raw=1",
        "placeType": "Resto",
        "placeDescription": "Una parrilla argentina tradicional donde se pueden disfrutar cortes de carne a la parrilla en un ambiente rústico y acogedor. Una excelente opción para los amantes del asado en Villa La Angostura."
    },
    {
        "id": 406,
        "name": "Cerveceria Epulafquen",
        "address": "Cacique Antriao 1965",
        "city": "Villa La Angostura",
        "state": "Neuquen",
        "area": "Villa La Angostura",
        "postal_code": "--",
        "country": "Argentina",
        "phone": "+54 294 449 5887",
        "lat": -40.743091,
        "long": -71.660785,
        "price": "$$ - $$$",
        "categories": ["Cerveceria", "Pizza"],
        "instagram": "https://www.instagram.com/cerveceriaepulafquen/?hl=es",
        "image_url": "https://www.dropbox.com/scl/fi/vzonzd3f8ogynlt6r2nae/epulafquen.jpeg?rlkey=rqkvcnud98hy94vvpgt943a01&raw=1",
        "placeType": "Bar",
        "placeDescription": "Un bar cervecero artesanal en el corazón de Villa La Angostura. Ofrece una amplia variedad de cervezas propias y una selección de pizzas para acompañar. Un ambiente rústico y acogedor, ideal para compartir con amigos y disfrutar de la Patagonia."
    },
    {
        "id": 407,
        "name": "Australis Cerveceria",
        "address": "Av De Los Arrayanes 2490",
        "city": "Villa La Angostura",
        "state": "Neuquen",
        "area": "Villa La Angostura",
        "postal_code": "--",
        "country": "Argentina",
        "phone": "+54 294 449 5645",
        "lat": -40.768770,
        "long": -71.621401,
        "price": "$$",
        "categories": ["Bar", "Pub"],
        "instagram": "https://www.instagram.com/alalbaparrilla/?hl=es",
        "image_url": "https://www.dropbox.com/scl/fi/6n4df3v7de6zufzxfqnt8/australis-2.jpg?rlkey=f2johbg1viflhaaicpk4s89vs&raw=1",
        "placeType": "Bar",
        "placeDescription": "Un bar con espíritu patagónico, especializado en cervezas artesanales. Su ambiente relajado y su excelente atención lo convierten en un punto de encuentro ideal para los amantes de la buena cerveza y la gastronomía regional."
    },
    {
        "id": 408,
        "name": "Finnegan Villa La Angostura",
        "address": "Av De Los Arrayanes 263",
        "city": "Villa La Angostura",
        "state": "Neuquen",
        "area": "Villa La Angostura",
        "postal_code": "--",
        "country": "Argentina",
        "phone": "+54 294 449 4381",
        "lat": -40.762447,
        "long": -71.642292,
        "price": "$$",
        "categories": ["Bar", "Pub"],
        "instagram": "https://www.instagram.com/australis.cerveceria/?hl=es",
        "image_url": "https://www.dropbox.com/scl/fi/n7k0xho67lb6kgayzbqrf/finnegan.jpg?rlkey=ns4eoi806qxak0qinfn7xmdyw&raw=1",
        "placeType": "Bar",
        "placeDescription": "Un auténtico pub irlandés en la Patagonia, donde se pueden degustar cervezas artesanales, cócteles y una propuesta gastronómica con opciones para todos los gustos. Un lugar perfecto para disfrutar de buena música y una gran atmósfera."
    },
    {
        "id": 409,
        "name": "Pistach'",
        "address": "Incayal 44 y Av De Los Arrayanes",
        "city": "Villa La Angostura",
        "state": "Neuquen",
        "area": "Villa La Angostura",
        "postal_code": "--",
        "country": "Argentina",
        "phone": "+54 294 449 5203",
        "lat": -40.762684,
        "long": -71.643827,
        "price": "$$",
        "categories": ["Pizza", "Mediterraneo"],
        "instagram": "https://www.instagram.com/pistachresto/?hl=es",
        "image_url": "https://www.dropbox.com/scl/fi/vsafampop5p25dglw05q0/pistach-2.jpg?rlkey=jpr2y7d26vaoeqqy6t6pvimto&raw=1",
        "placeType": "Pizzería",
        "placeDescription": "Un restaurante con influencia mediterránea que ofrece pizzas artesanales y platos con ingredientes frescos y de calidad. Con una ubicación privilegiada en Villa La Angostura, es una excelente opción para quienes buscan una comida deliciosa en un entorno cálido y acogedor."
    },
    {
        "id": 410,
        "name": "La Tanita",
        "address": "Av De Los Arrayanes 66",
        "city": "Villa La Angostura",
        "state": "Neuquen",
        "area": "Villa La Angostura",
        "postal_code": "--",
        "country": "Argentina",
        "phone": "+54 294 449 4381",
        "lat": -40.762163,
        "long": -71.646138,
        "price": "$$",
        "categories": ["Pizzería", "Italiana"],
        "instagram": "https://www.instagram.com/latanitavla/?hl=es",
        "image_url": "https://www.dropbox.com/scl/fi/4mvamroyo0sqkormuk6vb/restaurante-la-tanita-2.jpg?rlkey=gcgzzk7kauve3mm71q4wkjx5b&raw=1",
        "placeType": "Pizzería",
        "placeDescription": "Una pizzería de tradición en Villa La Angostura, reconocida por sus pizzas de masa fina y crujiente, preparadas en horno de piedra. Con un ambiente familiar y un servicio amable, es un excelente lugar para disfrutar de auténticas pizzas italianas en la Patagonia."
    },
    {
        "id": 411,
        "name": "Valhalla",
        "address": "Av Siete Lagos 907",
        "city": "Villa La Angostura",
        "state": "Neuquen",
        "area": "Villa La Angostura",
        "postal_code": "--",
        "country": "Argentina",
        "phone": "+54 294 482 7175",
        "lat": -40.755363,
        "long": -71.656779,
        "price": "$$",
        "categories": ["Cerveceria", "Pizzería"],
        "instagram": "https://www.instagram.com/valhallaenlapatagonia/?hl=es-la",
        "image_url": "https://www.dropbox.com/scl/fi/7ltbnkwv0xmxof66fimtg/valhalla-2.jpg?rlkey=57y4p3q2rhdlqr6ut0djfoi09&raw=1",
        "placeType": "Pizzería",
        "placeDescription": "Un bar cervecero y pizzería en el corazón de Villa La Angostura. Ofrece una excelente selección de cervezas artesanales y pizzas de masa fina, en un ambiente cálido y rústico con inspiración vikinga. Ideal para disfrutar de buena comida y compañía."
    },
    {
        "id": 412,
        "name": "Cascadas Ñivinco",
        "address": "Av Siete Lagos 907",
        "city": "Villa La Angostura",
        "state": "Neuquen",
        "area": "Villa La Angostura",
        "postal_code": "--",
        "country": "Argentina",
        "phone": "--",
        "lat": -40.487729,
        "long": -71.663520,
        "price": "$$",
        "categories": ["Cascadas"],
        "instagram": "--",
        "image_url": "https://www.dropbox.com/scl/fi/gwxwx2vsalaxrsvw7af7s/cascada-nivinco-2.jpg?rlkey=txbc6v2hnwxc0r3ijw06xt4aa&raw=1",
        "placeType": "Paseos",
        "placeDescription": "Un destino natural imperdible en Villa La Angostura. Para llegar, se debe realizar una caminata sencilla a través de un bosque, cruzando pequeños arroyos. La recompensa es un conjunto de cascadas cristalinas rodeadas de vegetación patagónica, un lugar perfecto para relajarse y conectar con la naturaleza."
    },
    {
        "id": 413,
        "name": "Rio Correntoso",
        "address": "--",
        "city": "Villa La Angostura",
        "state": "Neuquen",
        "area": "Villa La Angostura",
        "postal_code": "--",
        "country": "Argentina",
        "phone": "--",
        "lat": -40.735880,
        "long": -71.672068,
        "price": "$$",
        "categories": ["Rio"],
        "instagram": "--",
        "image_url": "https://www.dropbox.com/scl/fi/fyq719lwt02m6f7626ess/rio-correntoso-2.jpg?rlkey=rq2k7zv5dz8cdbme5v81u9ei2&raw=1",
        "placeType": "Paseos",
        "placeDescription": "Famoso por ser uno de los ríos más cortos del mundo, el Río Correntoso es un destino imperdible para quienes visitan Villa La Angostura. Sus aguas cristalinas conectan el Lago Correntoso con el Nahuel Huapi, ofreciendo un paisaje espectacular para caminatas, pesca con mosca y fotografía."
    },
    {
        "id": 414,
        "name": "Lago Espejo Grande",
        "address": "--",
        "city": "Villa La Angostura",
        "state": "Neuquen",
        "area": "Villa La Angostura",
        "postal_code": "--",
        "country": "Argentina",
        "phone": "--",
        "lat": -40.686886,
        "long": -71.696520,
        "price": "$",
        "categories": ["Lago"],
        "instagram": "--",
        "image_url": "https://www.dropbox.com/scl/fi/rmmvaaf0jiui44bl8ir0n/lago-espejo-2.jpg?rlkey=yrti33bk49nco5bzj6151rxsq&raw=1",
        "placeType": "Paseos",
        "placeDescription": "Ubicado dentro del Parque Nacional Nahuel Huapi, este lago debe su nombre a la claridad de sus aguas, que reflejan el paisaje circundante como un espejo. Es un lugar ideal para relajarse, nadar en sus aguas tranquilas y disfrutar de la belleza natural de la Patagonia."
    },
    {
        "id": 415,
        "name": "Cerro Bayo",
        "address": "--",
        "city": "Villa La Angostura",
        "state": "Neuquen",
        "area": "Villa La Angostura",
        "postal_code": "--",
        "country": "Argentina",
        "phone": "+54 294 482 7175",
        "lat": -40.772625,
        "long": -71.604051,
        "price": "$$ - $$$",
        "categories": ["Sky", "Snowboard", "Nieve"],
        "instagram": "https://www.instagram.com/cerro_bayo/?hl=es",
        "image_url": "https://www.dropbox.com/scl/fi/ugihayvscjxz1eqr9nvuz/Cerro-bayo-2.jpg?rlkey=08qqembpkf3quj6oplkwx7nsr&raw=1",
        "placeType": "Paseos",
        "placeDescription": "Un centro de esquí y snowboard que ofrece impresionantes vistas al Lago Nahuel Huapi. Con pistas para todos los niveles y actividades tanto en invierno como en verano, es un destino ideal para los amantes de los deportes de nieve y la aventura en la montaña."
    },
    {
        "id": 416,
        "name": "Parque Nacional Arrayanes",
        "address": "--",
        "city": "Villa La Angostura",
        "state": "Neuquen",
        "area": "Villa La Angostura",
        "postal_code": "--",
        "country": "Argentina",
        "phone": "--",
        "lat": -40.825001,
        "long": -71.628721,
        "price": "$",
        "categories": ["Bosque", "Aire Libre"],
        "instagram": "https://www.instagram.com/valhallaenlapatagonia/?hl=es-la",
        "image_url": "https://www.dropbox.com/scl/fi/gg4pmh9ojbnmlepr130mg/arrayanes-2.jpg?rlkey=erw4kregvqngmufm04xfnkbk0&raw=1",
        "placeType": "Paseos",
        "placeDescription": "Un bosque único en el mundo, famoso por sus árboles de arrayán de color canela y su corteza lisa. Se puede recorrer en bicicleta, a pie o en barco, disfrutando de senderos rodeados de naturaleza pura. Un paseo inolvidable en Villa La Angostura."
    }
]
