[
    {
        "id":1046,
        "name":"Al Fondo",
        "address":"Campos Salles 2145",
        "city":"CABA",
        "state":"Buenos Aires",
        "area":"Nuñez",
        "postal_code":"C1429",
        "country":"Argentina",
        "phone":"+54 11 3108 7681",
        "lat":-34.550648,
        "long":-58.463368,
        "price":"$$$$",
        "categories":["Bar"],
        "instagram":"https://www.instagram.com/alfondo.bar/",
        "image_url":"https://www.dropbox.com/scl/fi/lx9b37qyurvdoow9tmvbd/al-fondo-bar-2.jpg?rlkey=vocm4faf5ydzpi588w4r6qoz0&raw=1",
        "placeType": "Bar",
        "placeDescription": "Un bar acogedor y relajado en Nuñez que sirve cócteles y cervezas en un ambiente tranquilo."
    },
    {
        "id":1047,
        "name":"Boticario",
        "address":"Honduras 5207",
        "city":"CABA",
        "state":"Buenos Aires",
        "area":"Palermo",
        "postal_code":"B1743",
        "country":"Argentina",
        "phone":"+54 11 6227 9609",
        "lat":-34.587320,
        "long":-58.432156,
        "price":"$$$$",
        "categories":["Bar"],
        "instagram":"https://www.instagram.com/boticariobar/",
        "image_url":"https://www.dropbox.com/scl/fi/b9yrahorhpk308h24s9om/BoticarioBar.jpg?rlkey=afu2sz3hcsvebjpu7nttmz4t0&raw=1",
        "placeType": "Bar",
        "placeDescription": "Un bar refinado en Palermo que ofrece bebidas únicas y un ambiente clásico."
    },
    {
        "id":1048,
        "name":"Presidente Bar",
        "address":"Presidente Quintana 188",
        "city":"CABA",
        "state":"Buenos Aires",
        "area":"Recoleta",
        "postal_code":"C101A",
        "country":"Argentina",
        "phone":"+54 11 4811 3248",
        "lat":-34.591011,
        "long":-58.386929,
        "price":"$$$$",
        "categories":["Bar"],
        "instagram":"https://www.instagram.com/presidentebar/",
        "image_url":"https://www.dropbox.com/scl/fi/l5f5laq5rcl82m7frfz8n/presidente_bar-2.jpg?rlkey=p3aym35a6y0gr7849sltic4lw&raw=1",
        "placeType": "Bar",
        "placeDescription": "Un bar elegante en Recoleta, que ofrece cócteles exclusivos y un ambiente sofisticado."
    },
    {
        "id":1049,
        "name":"El Museo del Whisky",
        "address":"Monroe 3980",
        "city":"CABA",
        "state":"Buenos Aires",
        "area":"Belgrano",
        "postal_code":"C1430",
        "country":"Argentina",
        "phone":"+54 11 4543 5873",
        "lat":-34.567741,
        "long":-58.474810,
        "price":"$$$",
        "categories":["Bar"],
        "instagram":"https://www.instagram.com/museowhisky/",
        "image_url":"https://www.dropbox.com/scl/fi/ap5nkhh78f2fg6mz2wuou/el-museo-del-whisky.jpg?rlkey=s0edv6oqt51s3ggwa3rr6r9cn&raw=1",
        "placeType": "Bar",
        "placeDescription": "Un bar exclusivo dedicado al whisky, ofreciendo una amplia selección y un ambiente sofisticado."
    }
]
